stationName,Address,City,State,postalCode,Lat,Long,Charger type,Charger type (legend),stationModel,StationNetworkStatus,LastPortStatus,faultReason,station_label,ports_total,ports_charging,ports_occupied,ports_available,StatusTimestamp,_loaded_at_utc
NYC FLEET / DSNY_SI1A-S1,3 Muldoon Ave,Staten Island,New York,10314,40.575317,-74.19644,Level 2,Level 2 - Solar,CT4010-HD-GW,Unreachable,UNREACHABLE,NONE,Available,1,0,0,1,2025-12-17T02:34:40Z,2026-02-03T18:33:15.790551+00:00
NYC FLEET / DSNY_SI3A-S1,3 Muldoon Ave,Staten Island,New York,10314,40.57530280178956,-74.19646478220902,Level 2,Level 2 - Solar,CT4010-HD-GW,Unreachable,UNREACHABLE,NONE,Available,1,0,0,1,2025-10-16T22:04:15Z,2026-02-03T18:33:15.790551+00:00
NYC FLEET / FDNY_405LOT#1,418 A Weaver Ave,Queens,New York,11359,40.793448167436814,-73.77569886931154,Level 2,Level 2,CPF50-L18,Reachable,AVAILABLE,NONE,Available,1,0,0,1,2026-02-03T18:25:17Z,2026-02-03T18:33:15.790551+00:00
NYC FLEET / DEP_GILBOA_1_L3,370 NY-990V,Gilboa,New York,12076,42.3966985,-74.44683810000001,Level 3,Level 3,CPE250C-500-CCS1-CHD,Reachable,AVAILABLE,NONE,Available,1,0,0,1,2026-02-03T18:32:10Z,2026-02-03T18:33:15.790551+00:00
NYC FLEET / DEP_BXWM-S1,3201 Jerome Ave,The Bronx,New York,10468,40.87843174829478,-73.88650186931152,Level 2,Level 2 - Solar,CT4010-HD-GW,Unreachable,UNREACHABLE,NONE,Available,1,0,0,1,2025-09-15T17:05:12Z,2026-02-03T18:33:15.790551+00:00
NYC FLEET / NYPD_FBF-S1,3260 Flatbush Ave,Brooklyn,New York,11234,40.58902340838951,-73.89957598413086,Level 2,Level 2 - Solar,CT4010-HD-GW,Unreachable,UNREACHABLE,NONE,Available,1,0,0,1,2026-01-16T21:16:41Z,2026-02-03T18:33:15.790551+00:00
NYC FLEET / NYCHA_SOTOMY-S1,1741 Bruckner Blvd,The Bronx,New York,10472,40.82651,-73.86648699999999,Level 2,Level 2 - Solar,CT4010-HD-GW,Unreachable,UNREACHABLE,NONE,Available,1,0,0,1,2026-01-19T14:00:41Z,2026-02-03T18:33:15.790551+00:00
NYC FLEET / NYCHA_RAVENS-S1,35-35 21st St,Queens,New York,11106,40.7600591,-73.9354255,Level 2,Level 2 - Solar,CT4010-HD-GW,Unreachable,UNREACHABLE,NONE,Available,1,0,0,1,2025-11-27T07:05:01Z,2026-02-03T18:33:15.790551+00:00
NYC FLEET / NYCHA_CYPRHL-S1,1260 Sutter Ave,Brooklyn,New York,11208,40.6720029,-73.87158219999999,Level 2,Level 2 - Solar,CT4010-HD-GW,Unreachable,UNREACHABLE,NONE,Available,1,0,0,1,2026-01-26T11:19:18Z,2026-02-03T18:33:15.790551+00:00
NYC FLEET / DEP_ASHOKN_1_L3,2398 NY-28A,Olivebridge,New York,12461,41.94641,-74.20333,Level 3,Level 3,CPE250C-500-CCS1-CHD,,,,Charging,1,1,0,0,,2026-02-03T18:33:15.790551+00:00
NYC FLEET / DOE_MANORSI-1,1220 Manor Rd,Staten Island,New York,10314,40.596687,-74.1253,Level 2,Level 2,CT4020-HD2-GW-LTE,Reachable,AVAILABLE,NONE,Available,2,0,0,2,2026-02-03T18:27:04Z,2026-02-03T18:33:15.790551+00:00
NYC FLEET / DSNY_Q09-2,132-05 Atlantic Ave,Queens,New York,11418,40.69679266284541,-73.81687078836059,Level 2,Level 2,CT4020-HD-GW,Reachable,AVAILABLE,NONE,Available,2,0,0,2,2026-02-03T18:27:51Z,2026-02-03T18:33:15.790551+00:00
NYC FLEET / DSNY_Q09-1,132-05 Atlantic Ave,Queens,New York,11418,40.69678452855429,-73.81690297486877,Level 2,Level 2,CT4020-HD-GW,Reachable,AVAILABLE,NONE,Available,2,0,0,2,2026-02-03T18:31:21Z,2026-02-03T18:33:15.790551+00:00
NYC FLEET / NYPD_PCT47_4,4111 Laconia Ave,The Bronx,New York,10466,40.88748546420784,-73.84752198773155,Level 2,Level 2,CPF50-L18,Reachable,AVAILABLE,NONE,Available,1,0,0,1,2026-02-03T18:28:17Z,2026-02-03T18:33:15.790551+00:00
NYC FLEET / NYPD_PCT47_5,4111 Laconia Ave,The Bronx,New York,10466,40.88745808970518,-73.8474938245369,Level 2,Level 2,CPF50,Reachable,AVAILABLE,NONE,Available,1,0,0,1,2026-02-03T18:28:17Z,2026-02-03T18:33:15.790551+00:00
NYC FLEET / NYPD_PCT47_6,4111 Laconia Ave,The Bronx,New York,10466,40.8875133456341,-73.84744219201336,Level 2,Level 2,CPF50-L18,Reachable,AVAILABLE,NONE,Available,1,0,0,1,2026-02-03T18:28:17Z,2026-02-03T18:33:15.790551+00:00
NYC FLEET / DEP_SHAFT10-1,1286 US-6,Carmel Hamlet,New York,10512,41.403155458500954,-73.70550487238734,Level 2,Level 2,CT4020-HD-GW,Reachable,AVAILABLE,NONE,Available,2,0,0,2,2026-02-03T18:31:03Z,2026-02-03T18:33:15.790551+00:00
NYC FLEET / DEP_GRHMS_1_L3,7892 42,Neversink,New York,12740,41.8457413,-74.54399389999999,Level 3,Level 3,CPE250C-500-CCS1-CHD,Reachable,AVAILABLE,NONE,Available,1,0,0,1,2026-02-03T18:28:20Z,2026-02-03T18:33:15.790551+00:00
NYC FLEET / DOT_SIREPAIR-1,1893 Richmond Ter,Staten Island,New York,10302,40.6375742292417,-74.12834448343239,Level 2,Level 2,CPF50-L18,Reachable,AVAILABLE,NONE,Available,1,0,0,1,2026-02-03T18:32:00Z,2026-02-03T18:33:15.790551+00:00
NYC FLEET / DEP_HILLVW2A-B,100 Central Park Avenue,Yonkers,New York,10704,40.909246567079,-73.870233772826,Level 2,Level 2,CT4020-HD-GW,Reachable,AVAILABLE,NONE,Available,2,0,0,2,2026-02-03T18:30:37Z,2026-02-03T18:33:15.790551+00:00
NYC FLEET / DEP_SH18_1_L3,20 Westlake Dr,Valhalla,New York,10595,41.085953,-73.774345,Level 3,Level 3,CPE250C-500-CCS1-CHD,Reachable,AVAILABLE,NONE,Available,1,0,0,1,2026-02-03T18:26:15Z,2026-02-03T18:33:15.790551+00:00
NYC FLEET / DSNY_Q09-DCFC1,132-05 Atlantic Ave,Queens,New York,11418,40.6968252,-73.8167635,Level 3,Level 3,CPE250C-500-CCS1-CHD,Reachable,INUSE,NONE,Available,1,0,0,1,2026-02-03T18:26:17Z,2026-02-03T18:33:15.790551+00:00
NYC FLEET / NYPD_SRG_1_L3,521 W 57th St,New York,New York,10019,40.769844,-73.98953,Level 3,Level 3,CPE250C-500-CCS1-CHD,Reachable,AVAILABLE,NONE,Available,1,0,0,1,2026-02-03T18:30:40Z,2026-02-03T18:33:15.790551+00:00
NYC FLEET / DEP_6PCT_1_L3,2 Walker Rd,Valhalla,New York,10595,41.0768,-73.812515,Level 3,Level 3,CPE250C-500-CCS1-CHD,Reachable,INUSE,NONE,Charging,1,1,0,0,2026-02-03T18:30:54Z,2026-02-03T18:33:15.790551+00:00
NYC FLEET / DEP_BEERSTNPCT,21852 NY-10,Walton,New York,13856,42.124424,-75.16277,Level 2,Level 2,CT4020-HD-GW,Reachable,AVAILABLE,NONE,Available,2,0,0,2,2026-02-03T18:29:18Z,2026-02-03T18:33:15.790551+00:00
NYC FLEET / DOC_OBCC1,16-00 Hazen Street,The Bronx,New York,11370,40.795934874523,-73.889544611571,Level 2,Level 2,CT4020-HD-GW,Reachable,AVAILABLE,NONE,Available,2,0,0,2,2026-02-03T18:32:08Z,2026-02-03T18:33:15.790551+00:00
NYC FLEET / DOF_STARR#2,31-32 Greenpoint Ave,Queens,New York,11101,40.73463496268522,-73.93668874603271,Level 2,Level 2,CT4020-HD2-GW-LTE,Reachable,INUSE,NONE,Available,2,0,0,2,2026-02-03T18:22:55Z,2026-02-03T18:33:15.790551+00:00
NYC FLEET / DOF_STARR#1,31-46 Greenpoint Ave,Queens,New York,11101,40.73482,-73.93633,Level 2,Level 2,CT4020-HD2-GW-LTE,Reachable,INUSE,NONE,Available,2,1,0,1,2026-02-03T18:23:54Z,2026-02-03T18:33:15.790551+00:00
NYC FLEET / DOT_COLUMB-1,166 Columbia St,Brooklyn,New York,11231,40.68634930670135,-74.0022487116394,Level 2,Level 2,CPF50-L18,Reachable,AVAILABLE,NONE,Available,1,0,0,1,2026-02-03T18:30:32Z,2026-02-03T18:33:15.790551+00:00
NYC FLEET / DOT_COLUMB-2,184 Columbia St,Brooklyn,New York,11231,40.68634117113524,-74.00254911904906,Level 2,Level 2,CPF50-L18,Reachable,AVAILABLE,NONE,Available,1,0,0,1,2026-02-03T18:30:32Z,2026-02-03T18:33:15.790551+00:00
NYC FLEET / DEP_CFP_1_L3,3701 Jerome Ave,The Bronx,New York,10467,40.8866,-73.87935,Level 3,Level 3,CPE250C-500-CCS1-CHD,Reachable,INUSE,NONE,Occupied,1,0,1,0,2026-02-03T18:27:46Z,2026-02-03T18:33:15.790551+00:00
NYC FLEET / DOT_448HAMILTON,448 Hamilton Ave,Brooklyn,New York,11232,40.670315,-73.998055,Level 2,Level 2,CT4020-HD2-GW-LTE,Reachable,AVAILABLE,NONE,Available,2,0,0,2,2026-02-03T18:26:09Z,2026-02-03T18:33:15.790551+00:00
NYC FLEET / DOE_BXSCIHS-1,750 Baychester Ave Loading dock,The Bronx,New York,10475,40.8741473,-73.8328179,Level 2,Level 2,CPF50,Unreachable,UNKNOWN,NONE,Available,1,0,0,1,2023-12-29T13:21:55Z,2026-02-03T18:33:15.790551+00:00
NYC FLEET / DOC_HAZENLOT4,15 Hazen St,The Bronx,New York,11370,40.79300086705942,-73.8838781253395,Level 2,Level 2,CT4010-HD2-GW-LTE,Reachable,AVAILABLE,NONE,Available,1,0,0,1,2026-02-03T18:23:39Z,2026-02-03T18:33:15.790551+00:00
NYC FLEET / DPRROCKAWAY80S1,350 80 St,Queens,New York,11693,40.591427,-73.80713,Level 2,Level 2 - Solar,CT4010-HD2-GW-LTE,Unreachable,UNREACHABLE,NONE,Available,1,0,0,1,2025-09-13T03:52:57Z,2026-02-03T18:33:15.790551+00:00
NYC FLEET / DPRROCKAWAY80S2,350 80 St,Queens,New York,11693,40.591465,-73.80684,Level 2,Level 2 - Solar,CT4010-HD-GW,Unreachable,UNREACHABLE,NONE,Available,1,0,0,1,2025-12-04T21:42:18Z,2026-02-03T18:33:15.790551+00:00
NYC FLEET / DPR_OVERLOOK-S1,80-30 Park Ln,Queens,New York,11415,40.71041066315062,-73.83532301719664,Level 2,Level 2 - Solar,CT4010-HD-GW,Unreachable,UNREACHABLE,NONE,Available,1,0,0,1,2025-12-04T20:58:34Z,2026-02-03T18:33:15.790551+00:00
NYC FLEET / DPR_OVERLOOK-S2,80-30 Park Ln,Queens,New York,11415,40.710415,-73.835655,Level 2,Level 2 - Solar,CT4010-HD-GW,Unreachable,NEEDS SERVICE,Powered Off,Available,1,0,0,1,2025-12-12T22:32:10Z,2026-02-03T18:33:15.790551+00:00
NYC FLEET / DPRRIVERSIDE-S3,223 Riverside Dr,New York,New York,10025,40.79532230033775,-73.97625003173827,Level 2,Level 2 - Solar,CT4010-HD-GW,Unreachable,NEEDS SERVICE,Station Unreachable,Available,1,0,0,1,2024-12-12T01:36:20Z,2026-02-03T18:33:15.790551+00:00
NYC FLEET / DPRRIVERSIDE-S4,223 Riverside Dr,New York,New York,10025,40.79524793318497,-73.97632857406617,Level 2,Level 2 - Solar,CT4010-HD-GW,Reachable,AVAILABLE,NONE,Available,1,0,0,1,2026-02-03T18:24:05Z,2026-02-03T18:33:15.790551+00:00
NYC FLEET / DOT_KENTAVE-1,372 Kent Ave,Brooklyn,New York,11249,40.71199841911077,-73.96830898465576,Level 2,Level 2,CPF50-L18,Reachable,AVAILABLE,NONE,Available,1,0,0,1,2026-02-03T18:32:23Z,2026-02-03T18:33:15.790551+00:00
NYC FLEET / DOT_KENTAVE-2,372 Kent Ave,Brooklyn,New York,11249,40.71206347854881,-73.96844845952454,Level 2,Level 2,CPF50-L18,Reachable,AVAILABLE,NONE,Available,1,0,0,1,2026-02-03T18:32:23Z,2026-02-03T18:33:15.790551+00:00
NYC FLEET / DOT_KENTAVE-3,372 Kent Ave,Brooklyn,New York,11249,40.71196588936792,-73.96839481534424,Level 2,Level 2,CPF50-L18,Reachable,AVAILABLE,NONE,Available,1,0,0,1,2026-02-03T18:32:23Z,2026-02-03T18:33:15.790551+00:00
NYC FLEET / DCAS100GLD_4_L3,100 Gold St,New York,New York,10038,40.710506,-74.003265,Level 3,Level 3,CPE250C-500-CCS1-CHD,Reachable,INUSE,NONE,Charging,1,1,0,0,2026-02-03T18:24:35Z,2026-02-03T18:33:15.790551+00:00
NYC FLEET / FDNY9METROTECH9,9 MetroTech Center,Brooklyn,New York,11201,40.694622,-73.983955,Level 2,Level 2,CPF50-L18,Unreachable,UNREACHABLE,NONE,Available,1,0,0,1,2026-02-03T12:11:38Z,2026-02-03T18:33:15.790551+00:00
NYC FLEET / DOE_JADAMSHS2,101-01 Rockaway Blvd,Queens,New York,11417,40.678623,-73.83706,Level 2,Level 2,CT4020-HD2-GW-LTE,Reachable,AVAILABLE,NONE,Available,2,0,0,2,2026-02-03T18:31:21Z,2026-02-03T18:33:15.790551+00:00
NYC FLEET / DSNY_QBS-DCFC6,52-07 58th St,Queens,New York,11377,40.735185630708905,-73.9093248981476,Level 3,Level 3,CPE250C-500-CCS1-CHD,Reachable,INUSE,NONE,Occupied,1,0,1,0,2026-02-03T18:28:50Z,2026-02-03T18:33:15.790551+00:00
NYC FLEET / DSNY_QBS-DCFC2,52-07 58th St,Queens,New York,11377,40.735298462337,-73.90959252645874,Level 3,Level 3,CPE250C-500-CCS1-CHD,Reachable,AVAILABLE,NONE,Available,1,0,0,1,2026-02-03T18:29:36Z,2026-02-03T18:33:15.790551+00:00
NYC FLEET / DSNY_QBS-DCFC3,52-07 58th St,Queens,New York,11377,40.73526594398007,-73.90942086508178,Level 3,Level 3,CPE250C-500-CCS1-CHD,Reachable,AVAILABLE,NONE,Available,1,0,0,1,2026-02-03T18:31:10Z,2026-02-03T18:33:15.790551+00:00
NYC FLEET / DSNY_QBS-DCFC5,52-07 58th St,Queens,New York,11377,40.73515585315912,-73.90909813491821,Level 3,Level 3,CPE250C-500-CCS1-CHD,Reachable,INUSE,NONE,Occupied,1,0,1,0,2026-02-03T18:30:43Z,2026-02-03T18:33:15.790551+00:00
NYC FLEET / DSNY_QBS-DCFC4,52-07 58th St,Queens,New York,11377,40.735054574272574,-73.90908827116394,Level 3,Level 3,CPE250C-500-CCS1-CHD,Reachable,AVAILABLE,NONE,Available,1,0,0,1,2026-02-03T18:30:17Z,2026-02-03T18:33:15.790551+00:00
NYC FLEET / DSNY_QBS-DCFC1,52-07 58th St,Queens,New York,11377,40.73508709273283,-73.90941013624573,Level 3,Level 3,CPE250C-500-CCS1-CHD,Reachable,AVAILABLE,NONE,Available,1,0,0,1,2026-02-03T18:28:50Z,2026-02-03T18:33:15.790551+00:00
NYC FLEET / DEP_26WARD_3_L3,12266 Flatlands Ave,Brooklyn,New York,11207,40.65238017463946,-73.87906675826646,Level 3,Level 3,CPE250C-500-CCS1-CHD,Reachable,AVAILABLE,NONE,Available,1,0,0,1,2026-02-03T18:27:49Z,2026-02-03T18:33:15.790551+00:00
NYC FLEET / DEP_26WARD_5_L3,12266 Flatlands Ave,Brooklyn,New York,11207,40.65233540621425,-73.8790372539673,Level 3,Level 3,CPE250C-500-CCS1-CHD,Reachable,AVAILABLE,NONE,Available,1,0,0,1,2026-02-03T18:24:42Z,2026-02-03T18:33:15.790551+00:00
NYC FLEET / DEP_26WARD_6_L3,12266 Flatlands Ave,Brooklyn,New York,11207,40.65230284734069,-73.87900774966813,Level 3,Level 3,CPE250C-500-CCS1-CHD,Reachable,INUSE,NONE,Charging,1,1,0,0,2026-02-03T18:32:20Z,2026-02-03T18:33:15.790551+00:00
NYC FLEET / DEP_WARDS_2_L3,104 B Rd,New York,New York,10035,40.787036431053856,-73.92487617462162,Level 3,Level 3,CPE250C-500-CCS1-CHD,Reachable,INUSE,NONE,Charging,1,1,0,0,2026-02-03T18:25:35Z,2026-02-03T18:33:15.790551+00:00
NYC FLEET / FDNY_FAB9-1,9 Reilly Blvd,New York,New York,10035,40.79211577076453,-73.91959772147845,Level 2,Level 2,CPF50-L18,Reachable,INUSE,NONE,Charging,1,1,0,0,2026-02-03T18:30:39Z,2026-02-03T18:33:15.790551+00:00
NYC FLEET / FDNY_FAB14-1,9 Reilly Blvd,New York,New York,10035,40.79211069411406,-73.91954877116393,Level 2,Level 2,CPF50-L18,Reachable,AVAILABLE,NONE,Available,1,0,0,1,2026-02-03T18:31:03Z,2026-02-03T18:33:15.790551+00:00
NYC FLEET / DEP_WARDS_3_L3,142 A Rd,New York,New York,10035,40.784992,-73.923805,Level 3,Level 3,CPE250C-500-CCS1-CHD,Reachable,INUSE,NONE,Occupied,1,0,1,0,2026-02-03T18:24:37Z,2026-02-03T18:33:15.790551+00:00
NYC FLEET / DEP_WARDS_4_L3,142 A Rd,New York,New York,10035,40.785046,-73.92385,Level 3,Level 3,CPE250C-500-CCS1-CHD,Reachable,AVAILABLE,NONE,Available,1,0,0,1,2026-02-03T18:25:25Z,2026-02-03T18:33:15.790551+00:00
NYC FLEET / DEP_WARDS_5_L3,142 A Rd,New York,New York,10035,40.785065,-73.92384,Level 3,Level 3,CPE250C-500-CCS1-CHD,Reachable,AVAILABLE,NONE,Available,1,0,0,1,2026-02-03T18:23:33Z,2026-02-03T18:33:15.790551+00:00
NYC FLEET / DEP_WARDS_6_L3,142 A Rd,New York,New York,10035,40.784992,-73.923744,Level 3,Level 3,CPE250C-500-CCS1-CHD,Reachable,AVAILABLE,NONE,Available,1,0,0,1,2026-02-03T18:30:33Z,2026-02-03T18:33:15.790551+00:00
NYC FLEET / DEP_WARDS_7_L3,149 8 Dr,New York,New York,10035,40.788452,-73.919815,Level 3,Level 3,CPE250C-500-CCS1-CHD,Reachable,INUSE,NONE,Charging,1,1,0,0,2026-02-03T18:31:05Z,2026-02-03T18:33:15.790551+00:00
NYC FLEET / DEP_WARDS_8_L3,149 8 Dr,New York,New York,10035,40.788433,-73.91971,Level 3,Level 3,CPE250C-500-CCS1-CHD,Reachable,AVAILABLE,NONE,Available,1,0,0,1,2026-02-03T18:23:28Z,2026-02-03T18:33:15.790551+00:00
NYC FLEET / DPRINWOODHLL-S1,600 W 218th St,New York,New York,10034,40.873863,-73.91964,Level 2,Level 2 - Solar,CT4010-HD-GW,Unreachable,UNREACHABLE,NONE,Available,1,0,0,1,2025-12-15T21:17:06Z,2026-02-03T18:33:15.790551+00:00
NYC FLEET / DPRINWOODHLL-S2,600 W 218th St,New York,New York,10034,40.873837,-73.91961,Level 2,Level 2 - Solar,CT4010-HD-GW,Reachable,AVAILABLE,NONE,Available,1,0,0,1,2026-02-03T18:26:39Z,2026-02-03T18:33:15.790551+00:00
NYC FLEET / DPR_BUSHWICK-S1,29 N 10th St,Brooklyn,New York,11249,40.72243121597033,-73.96036389577027,Level 2,Level 2 - Solar,CT4010-HD-GW,Unreachable,UNREACHABLE,NONE,Available,1,0,0,1,2026-01-29T18:39:05Z,2026-02-03T18:33:15.790551+00:00
NYC FLEET / DPRTENISCNTR-S1,1-00 Meridian Rd,Queens,New York,11368,40.7519632,-73.8434068,Level 2,Level 2 - Solar,CT4010-HD-GW,Unreachable,UNREACHABLE,NONE,Available,1,0,0,1,2025-12-22T16:44:06Z,2026-02-03T18:33:15.790551+00:00
NYC FLEET / DEPOAKWWTP_4_L3,751 Mill Rd,Staten Island,New York,10306,40.551246643568916,-74.11647536441804,Level 3,Level 3,CPE250C-500-CCS1-CHD,Unreachable,UNREACHABLE,NONE,Available,1,0,0,1,2025-06-23T14:03:37Z,2026-02-03T18:33:15.790551+00:00
NYC FLEET / DEPOAKWWTP_3_L3,751 Mill Rd,Staten Island,New York,10306,40.55128536572635,-74.1163975803566,Level 3,Level 3,CPE250C-500-CCS1-CHD,Unreachable,UNREACHABLE,NONE,Available,1,0,0,1,2026-02-03T17:57:35Z,2026-02-03T18:33:15.790551+00:00
NYC FLEET / DEPOAKWWTP_5_L3,751 Mill Rd,Staten Island,New York,10306,40.55140560807255,-74.11630906745911,Level 3,Level 3,CPE250C-500-CCS1-CHD,Reachable,AVAILABLE,NONE,Available,1,0,0,1,2026-02-03T18:29:06Z,2026-02-03T18:33:15.790551+00:00
NYC FLEET / DEPOAKWWTP_6_L3,751 Mill Rd,Staten Island,New York,10306,40.55142191210285,-74.11621250793458,Level 3,Level 3,CPE250C-500-CCS1-CHD,Reachable,AVAILABLE,NONE,Available,1,0,0,1,2026-02-03T18:30:34Z,2026-02-03T18:33:15.790551+00:00
NYC FLEET / DEPOAKWWTP_7_L3,751 Mill Rd,Staten Island,New York,10306,40.55136892398982,-74.11620177909852,Level 3,Level 3,CPE250C-500-CCS1-CHD,Reachable,AVAILABLE,NONE,Available,1,0,0,1,2026-02-03T18:29:17Z,2026-02-03T18:33:15.790551+00:00
NYC FLEET / DEPOAKWWTP_8_L3,751 Mill Rd,Staten Island,New York,10306,40.55147082416999,-74.1160730330658,Level 3,Level 3,CPE250C-500-CCS1-CHD,Unreachable,UNREACHABLE,NONE,Available,1,0,0,1,2025-10-30T18:21:22Z,2026-02-03T18:33:15.790551+00:00
NYC FLEET / DPR_MILLPOND-S1,5968 Maj Wm Deegan Blvd,The Bronx,New York,10451,40.824818,-73.93248,Level 2,Level 2 - Solar,CT4010-HD-GW,Unreachable,UNREACHABLE,NONE,Available,1,0,0,1,2025-12-05T04:51:38Z,2026-02-03T18:33:15.790551+00:00
NYC FLEET / DPR_DYKERBEA-S1,1121 86th St,Brooklyn,New York,11228,40.615921220245085,-74.01774216029662,Level 2,Level 2 - Solar,CT4010-HD2-GW-LTE,Unreachable,NEEDS SERVICE,Powered Off,Available,1,0,0,1,2025-12-05T20:24:26Z,2026-02-03T18:33:15.790551+00:00
NYC FLEET / DPR_MIDLAND-S4,3 Iroquois St,Staten Island,New York,10305,40.573902,-74.084564,Level 2,Level 2 - Solar,CT4010-HD-GW,Unreachable,UNREACHABLE,NONE,Available,1,0,0,1,2026-01-29T18:44:53Z,2026-02-03T18:33:15.790551+00:00
NYC FLEET / NYPD_FBF-S2,50 Aviation Rd,Brooklyn,New York,11234,40.59077,-73.88141,Level 2,Level 2 - Solar,CT4010-HD2-GW-LTE,Unreachable,UNREACHABLE,NONE,Available,1,0,0,1,2025-12-11T18:15:20Z,2026-02-03T18:33:15.790551+00:00
NYC FLEET / DOT_GLENDALE-S1,69-46 Sybilla St,Queens,New York,11375,40.708668,-73.85484,Level 2,Level 2 - Solar,CT4010-HD-GW,Reachable,AVAILABLE,NONE,Available,1,0,0,1,2026-02-03T18:28:58Z,2026-02-03T18:33:15.790551+00:00
NYC FLEET / DOT_GLENDALE-S2,69-46 Sybilla St,Queens,New York,11375,40.7086695,-73.8548398,Level 2,Level 2 - Solar,CT4010-HD-GW,Unreachable,UNREACHABLE,NONE,Available,1,0,0,1,2025-10-30T18:04:46Z,2026-02-03T18:33:15.790551+00:00
NYC FLEET / DPR_OLMSTED-S1,12 Olmsted Dr,Queens,New York,11368,40.752014,-73.848076,Level 2,Level 2 - Solar,CT4010-HD2-GW-LTE,Unreachable,UNREACHABLE,NONE,Available,1,0,0,1,2026-01-22T23:18:04Z,2026-02-03T18:33:15.790551+00:00
NYC FLEET / DPR_OKRDGE_1_L3,1 Forest Park Dr,Queens,New York,11421,40.69593956999706,-73.8661107196045,Level 3,Level 3,CPE250C-500-CCS1-CHD,Reachable,INUSE,NONE,Occupied,1,0,1,0,2026-02-03T18:24:17Z,2026-02-03T18:33:15.790551+00:00
NYC FLEET / DPR_OKRDGE_2_L3,1 Forest Park Dr,Queens,New York,11421,40.696117,-73.86624,Level 3,Level 3,CPE250C-500-CCS1-CHD,Reachable,AVAILABLE,NONE,Available,1,0,0,1,2026-02-03T18:26:07Z,2026-02-03T18:33:15.790551+00:00
NYC FLEET / DOE_Q80105,49-16 Vernon Blvd,Queens,New York,11101,40.742968,-73.9542546,Level 2,Level 2,CT4020-HD-GW,Reachable,AVAILABLE,NONE,Available,2,0,0,2,2026-02-03T18:25:31Z,2026-02-03T18:33:15.790551+00:00
NYC FLEET / DPR_BAISLEY-S1,118- 9 155th St,Queens,New York,11434,40.681206,-73.78738,Level 2,Level 2 - Solar,CT4010-HD-GW,Unreachable,UNREACHABLE,NONE,Available,1,0,0,1,2025-12-09T03:30:29Z,2026-02-03T18:33:15.790551+00:00
NYC FLEET / DOEVERNONBLVD-6,49-44 Vernon Blvd,Queens,New York,11101,40.74966343232623,-73.95255794232787,Level 2,Level 2,CPF50-L18,Reachable,INUSE,NONE,Occupied,1,0,1,0,2026-02-03T18:25:07Z,2026-02-03T18:33:15.790551+00:00
NYC FLEET / DOEVERNONBLVD-7,44-36 Vernon Blvd,Queens,New York,11101,40.74957402611786,-73.95250429814757,Level 2,Level 2,CPF50-L18,Reachable,AVAILABLE,NONE,Available,1,0,0,1,2026-02-03T18:25:07Z,2026-02-03T18:33:15.790551+00:00
NYC FLEET / DSNY_Q01-DCFC1,34-28 21st St,Queens,New York,11106,40.76191749467333,-73.93513618650817,Level 3,Level 3,CPE250C-500-CCS1-CHD,Reachable,AVAILABLE,NONE,Available,1,0,0,1,2026-02-03T18:23:41Z,2026-02-03T18:33:15.790551+00:00
NYC FLEET / DSNY_Q01-DCFC2,34-28 21st St,Queens,New York,11106,40.761958126329176,-73.93509863558197,Level 3,Level 3,CPE250C-500-CCS1-CHD,Reachable,INUSE,NONE,Occupied,1,0,1,0,2026-02-03T18:31:38Z,2026-02-03T18:33:15.790551+00:00
NYC FLEET / DSNY_BK16-DCFC1,922 Georgia Ave,Brooklyn,New York,11207,40.65436848701995,-73.88993125396726,Level 3,Level 3,CPE250C-500-CCS1-CHD,Reachable,AVAILABLE,NONE,Available,1,0,0,1,2026-02-03T18:32:40Z,2026-02-03T18:33:15.790551+00:00
NYC FLEET / DSNY_BK16-DCFC2,922 Georgia Ave,Brooklyn,New York,11207,40.654222697443274,-73.88983125396729,Level 3,Level 3,CPE250C-500-CCS1-CHD,Reachable,AVAILABLE,NONE,Available,1,0,0,1,2026-02-03T18:30:24Z,2026-02-03T18:33:15.790551+00:00
NYC FLEET / DPRROCKAWAY97S2,9111 Shore Front Pkwy,Queens,New York,11693,40.58421390792489,-73.81322744047546,Level 2,Level 2 - Solar,CT4010-HD-GW,Unreachable,UNREACHABLE,NONE,Available,1,0,0,1,2026-01-24T03:37:41Z,2026-02-03T18:33:15.790551+00:00
NYC FLEET / DPRROCKAWAY97S1,1 Beach 56th Pl,Queens,New York,11692,40.58312,-73.81757,Level 2,Level 2 - Solar,CT4010-HD-GW,Unreachable,UNREACHABLE,NONE,Available,1,0,0,1,2026-01-29T17:20:17Z,2026-02-03T18:33:15.790551+00:00
NYC FLEET / DOC_SDC-1,SDC OFFICE,Queens,New York,11370,40.79007681006387,-73.87942995498658,Level 2,Level 2,CT4020-HD-GW,Reachable,AVAILABLE,NONE,Available,2,0,0,2,2026-02-03T18:29:51Z,2026-02-03T18:33:15.790551+00:00
NYC FLEET / DEPNRVWWTP_7_L3,725 W 135th St,New York,New York,10031,40.82543,-73.95771,Level 3,Level 3,CPE250C-500-CCS1-CHD,Reachable,AVAILABLE,NONE,Available,1,0,0,1,2026-02-03T18:30:51Z,2026-02-03T18:33:15.790551+00:00
NYC FLEET / DEPNRVWWTP_5_L3,725 W 135th St,New York,New York,10031,40.82543,-73.95779,Level 3,Level 3,CPE250C-500-CCS1-CHD,Reachable,AVAILABLE,NONE,Available,1,0,0,1,2026-02-03T18:24:43Z,2026-02-03T18:33:15.790551+00:00
NYC FLEET / DEPNRVWWTP_3_L3,725 W 135th St,New York,New York,10031,40.825413,-73.95779,Level 3,Level 3,CPE250C-500-CCS1-CHD,Reachable,AVAILABLE,NONE,Available,1,0,0,1,2026-02-03T18:23:18Z,2026-02-03T18:33:15.790551+00:00
NYC FLEET / DEPNRVWWTP_6_L3,725 W 135th St,New York,New York,10031,40.82537,-73.95784,Level 3,Level 3,CPE250C-500-CCS1-CHD,Reachable,AVAILABLE,NONE,Available,1,0,0,1,2026-02-03T18:27:23Z,2026-02-03T18:33:15.790551+00:00
NYC FLEET / DEPNRVWWTP_4_L3,725 W 135th St,New York,New York,10031,40.82541,-73.957825,Level 3,Level 3,CPE250C-500-CCS1-CHD,Reachable,AVAILABLE,NONE,Available,1,0,0,1,2026-02-03T18:32:13Z,2026-02-03T18:33:15.790551+00:00
NYC FLEET / DEPNRVWWTP_2_L3,725 W 135th St,New York,New York,10031,40.825397,-73.95776,Level 3,Level 3,CPE250C-500-CCS1-CHD,Reachable,AVAILABLE,NONE,Available,1,0,0,1,2026-02-03T18:28:05Z,2026-02-03T18:33:15.790551+00:00
NYC FLEET / DOE_FLATLANDS-1,6565 Flatlands Ave,Brooklyn,New York,11236,40.63352730198241,-73.91755218650819,Level 2,Level 2,CT4020-HD2-GW-LTE,Reachable,AVAILABLE,NONE,Available,2,0,0,2,2026-02-03T18:27:40Z,2026-02-03T18:33:15.790551+00:00
NYC FLEET / DEPQUEENSREP-S1,106-36 180th St,Queens,New York,11433,40.70288549999999,-73.77784361534425,Level 2,Level 2 - Solar,CT4010-HD-GW,Unreachable,UNREACHABLE,NONE,Available,1,0,0,1,2026-01-24T04:28:57Z,2026-02-03T18:33:15.790551+00:00
NYC FLEET / DEP_7WARDSI-S4,117 K Rd,New York,New York,10035,40.791462,-73.92209,Level 2,Level 2 - Solar,CT4010-HD-GW,Unreachable,UNREACHABLE,NONE,Available,1,0,0,1,2026-01-24T05:40:04Z,2026-02-03T18:33:15.790551+00:00
NYC FLEET / DEP_7WARDSI-S6,117 K Rd,New York,New York,10035,40.79139,-73.9221,Level 2,Level 2 - Solar,CT4010-HD-GW,Unreachable,UNREACHABLE,NONE,Available,1,0,0,1,2026-01-24T04:31:34Z,2026-02-03T18:33:15.790551+00:00
NYC FLEET / DEP_7WARDSI-S7,116 K Rd,New York,New York,10035,40.79128,-73.92226,Level 2,Level 2 - Solar,CT4010-HD-GW,Unreachable,UNREACHABLE,NONE,Available,1,0,0,1,2026-01-24T04:42:22Z,2026-02-03T18:33:15.790551+00:00
NYC FLEET / DEP_7WARDSI-S5,116 K Rd,New York,New York,10035,40.79134,-73.92219,Level 2,Level 2 - Solar,CT4010-HD-GW,Unreachable,UNREACHABLE,NONE,Available,1,0,0,1,2026-01-24T05:02:08Z,2026-02-03T18:33:15.790551+00:00
NYC FLEET / DEP_7WARDSI-S3,116 K Rd,New York,New York,10035,40.79121,-73.92232,Level 2,Level 2 - Solar,CT4010-HD-GW,Unreachable,UNREACHABLE,NONE,Available,1,0,0,1,2025-12-05T00:23:20Z,2026-02-03T18:33:15.790551+00:00
NYC FLEET / DPRWFMARNA_4_L3,109-5 Marina Rd,Queens,New York,11368,40.760345,-73.85546,Level 3,Level 3 - Public Stations,CPE250C-500-CCS1-CHD,Reachable,INUSE,NONE,Charging,1,1,0,0,2026-02-03T18:30:39Z,2026-02-03T18:33:15.790551+00:00
NYC FLEET / DPRWFMARNA_5_L3,109-5 Marina Rd,Queens,New York,11368,40.76038,-73.85531,Level 3,Level 3 - Public Stations,CPE250C-500-CCS1-CHD,Reachable,INUSE,NONE,Charging,1,1,0,0,2026-02-03T18:24:44Z,2026-02-03T18:33:15.790551+00:00
NYC FLEET / DPRWFMARNA_3_L3,109-5 Marina Rd,Queens,New York,11368,40.760345,-73.85537,Level 3,Level 3 - Public Stations,CPE250C-500-CCS1-CHD,Reachable,INUSE,NONE,Charging,1,1,0,0,2026-02-03T18:26:50Z,2026-02-03T18:33:15.790551+00:00
NYC FLEET / DPRWFMARNA_2_L3,109-5 Marina Rd,Queens,New York,11368,40.76033,-73.855286,Level 3,Level 3 - Public Stations,CPE250C-500-CCS1-CHD,Reachable,INUSE,NONE,Charging,1,1,0,0,2026-02-03T18:25:52Z,2026-02-03T18:33:15.790551+00:00
NYC FLEET / DEP_26WRDP_1_L3,12266 Flatlands Ave,Brooklyn,New York,11207,40.653805,-73.88026,Level 3,Level 3,CPE250C-500-CCS1-CHD,Reachable,AVAILABLE,NONE,Available,1,0,0,1,2026-02-03T18:23:03Z,2026-02-03T18:33:15.790551+00:00
NYC FLEET / DEP_26WRDP_2_L3,12266 Flatlands Ave,Brooklyn,New York,11207,40.653778,-73.88031,Level 3,Level 3,CPE250C-500-CCS1-CHD,Reachable,AVAILABLE,NONE,Available,1,0,0,1,2026-02-03T18:29:51Z,2026-02-03T18:33:15.790551+00:00
NYC FLEET / DEP_26WRDP_3_L3,12266 Flatlands Ave,Brooklyn,New York,11207,40.65379,-73.88022,Level 3,Level 3,CPE250C-500-CCS1-CHD,Reachable,AVAILABLE,NONE,Available,1,0,0,1,2026-02-03T18:25:51Z,2026-02-03T18:33:15.790551+00:00
NYC FLEET / FDNY_E176#1,453 E 176th St,The Bronx,New York,10457,40.846320019983935,-73.89910494232788,Level 2,Level 2,CPF50-L18,Reachable,AVAILABLE,NONE,Available,1,0,0,1,2026-02-03T18:27:04Z,2026-02-03T18:33:15.790551+00:00
NYC FLEET / DPR_FRSTRYRES#2,1010 Queens Plaza South,Queens,New York,11101,40.754081518407,-73.947696581402,Level 2,Level 2,CT4020-HD2-GW-LTE,Reachable,AVAILABLE,NONE,Available,2,0,0,2,2026-02-03T18:27:18Z,2026-02-03T18:33:15.790551+00:00
NYC FLEET / FDNY_35EMPIRE#1,35 Empire Blvd,Brooklyn,New York,11205,40.66352752330014,-73.96133581349181,Level 2,Level 2,CPF50-L18,Reachable,AVAILABLE,NONE,Available,1,0,0,1,2026-02-03T18:28:31Z,2026-02-03T18:33:15.790551+00:00
NYC FLEET / DOT_WILLIAMSBR,1400 Williamsbridge Road,The Bronx,New York,10461,40.842463083001,-73.844144390961,Level 2,Level 2,CT4020-HD2-GW-LTE,Reachable,INUSE,NONE,Available,2,1,0,1,2026-02-03T18:24:15Z,2026-02-03T18:33:15.790551+00:00
NYC FLEET / DEP_SHAFT18-4,20 Westlake Dr,Valhalla,New York,10595,41.0854673189477,-73.77545329312878,Level 2,Level 2,CT4020-HD-GW,Reachable,AVAILABLE,NONE,Available,2,0,0,2,2026-02-03T18:25:40Z,2026-02-03T18:33:15.790551+00:00
NYC FLEET / HRA_11THAVE-8,512 W 27th St,New York,New York,10001,40.750512527450674,-74.00317746347655,Level 2,Level 2,CT4020-HD2-GW-LTE,Reachable,AVAILABLE,NONE,Available,2,0,0,2,2026-02-03T18:25:09Z,2026-02-03T18:33:15.790551+00:00
NYC FLEET / HRA_11THAVE-7,260 11th Ave,New York,New York,10001,40.7510327,-74.0052374,Level 2,Level 2,CT4020-HD-GW,Reachable,AVAILABLE,NONE,Available,2,0,0,2,2026-02-03T18:26:31Z,2026-02-03T18:33:15.790551+00:00
NYC FLEET / DOB_BRDWY_1_L3,280 Broadway,New York,New York,10007,40.714356052122,-74.005333702097,Level 3,Level 3,CPE250C-500-CCS1-CHD,Reachable,AVAILABLE,NONE,Available,1,0,0,1,2026-02-03T18:29:55Z,2026-02-03T18:33:15.790551+00:00
NYC FLEET / DSNY_BK18-DCFC2,105-01 Foster Ave,Brooklyn,New York,11236,40.652574128602815,-73.89992044232787,Level 3,Level 3,CPE250C-500-CCS1-CHD,Reachable,INUSE,NONE,Charging,1,1,0,0,2026-02-03T18:23:41Z,2026-02-03T18:33:15.790551+00:00
NYC FLEET / DSNY_BK18-DCFC1,105-01 Foster Ave,Brooklyn,New York,11236,40.65256231696069,-73.89998008493556,Level 3,Level 3,CPE250C-500-CCS1-CHD,Reachable,AVAILABLE,NONE,Available,1,0,0,1,2026-02-03T18:28:05Z,2026-02-03T18:33:15.790551+00:00
NYC FLEET / DOE_SPRGFLDHS-1,143-10 Springfield Blvd,Queens,New York,11413,40.6675872,-73.75817420000001,Level 2,Level 2,CT4020-HD2-GW-LTE,Reachable,AVAILABLE,NONE,Available,2,0,0,2,2026-02-03T18:30:13Z,2026-02-03T18:33:15.790551+00:00
NYC FLEET / DOE_STJOSEPH-1,85 St Josephs Ave,Staten Island,New York,10302,40.63423989139876,-74.1425064576721,Level 2,Level 2,CPF50-L18-PEDMNT-CMK6,Reachable,AVAILABLE,NONE,Available,1,0,0,1,2026-02-03T18:29:21Z,2026-02-03T18:33:15.790551+00:00
NYC FLEET / DEP_SHAFT10-2,1286 US-6,Carmel Hamlet,New York,10512,41.4031625,-73.70553840000001,Level 2,Level 2,CT4020-HD-GW,Reachable,AVAILABLE,NONE,Available,2,0,0,2,2026-02-03T18:30:42Z,2026-02-03T18:33:15.790551+00:00
NYC FLEET / NYPD_73PCT_1_L3,1470 East New York Avenue,Brooklyn,New York,11212,40.670708541705,-73.913094447995,Level 3,Level 3,CPE250C-500-CCS1-CHD,Reachable,AVAILABLE,NONE,Available,1,0,0,1,2026-02-03T18:30:22Z,2026-02-03T18:33:15.790551+00:00
NYC FLEET / DOC_WFACADMIN-1,16-06 Hazen St,The Bronx,New York,11370,40.792628585033256,-73.89223641446381,Level 2,Level 2,CT4020-HD-GW,Reachable,AVAILABLE,NONE,Available,2,0,0,2,2026-02-03T18:29:29Z,2026-02-03T18:33:15.790551+00:00
NYC FLEET / DOC_RADIO-1,10- 10 Hazen St,The Bronx,New York,11370,40.789531796327324,-73.88770348122864,Level 2,Level 2,CT4020-HD-GW,Reachable,AVAILABLE,NONE,Available,2,0,1,1,2026-02-03T18:25:23Z,2026-02-03T18:33:15.790551+00:00
NYC FLEET / DOE_PS59-#1,2195 Bathgate Ave,The Bronx,New York,10457,40.85301573301833,-73.89387963624571,Level 2,Level 2,CPF50-L18,Reachable,AVAILABLE,NONE,Available,1,0,0,1,2026-02-03T18:27:18Z,2026-02-03T18:33:15.790551+00:00
NYC FLEET / DEP_CRTNLK_1_L3,1120 Croton Dam Road,Ossining,New York,10598,41.233929204175,-73.802764663167,Level 3,Level 3,CPE250C-500-CCS1-CHD,Reachable,AVAILABLE,NONE,Available,1,0,0,1,2026-02-03T18:24:51Z,2026-02-03T18:33:15.790551+00:00
NYC FLEET / DEP_CROTONLK-1,1020 Croton Dam Road,Yorktown Heights,New York,10598,41.233895412561,-73.802833875553,Level 2,Level 2,CT4020-HD-GW,Reachable,AVAILABLE,NONE,Available,2,0,0,2,2026-02-03T18:26:23Z,2026-02-03T18:33:15.790551+00:00
NYC FLEET / DEP_CROTONLK-2,1120 Croton Dam Road,Ossining,New York,10598,41.233844259607,-73.802906571881,Level 2,Level 2,CT4020-HD-GW,Reachable,AVAILABLE,NONE,Available,2,0,0,2,2026-02-03T18:24:43Z,2026-02-03T18:33:15.790551+00:00
NYC FLEET / DPR_MSPTHPK-1,54-54 43rd St,Queens,New York,11378,40.73087150000001,-73.92583259999999,Level 2,Level 2,CT4025-HD-GW,Reachable,AVAILABLE,NONE,Available,2,0,0,2,2026-02-03T18:24:09Z,2026-02-03T18:33:15.790551+00:00
NYC FLEET / DEP_MNREPAIR-1,28 Pike St,New York,New York,10002,40.7127851,-73.9929318,Level 2,Level 2,CT4020-HD-GW,Reachable,AVAILABLE,NONE,Available,2,0,0,2,2026-02-03T18:31:17Z,2026-02-03T18:33:15.790551+00:00
NYC FLEET / NYPD_73PCT_2_L3,1482 E New York Ave,Brooklyn,New York,11212,40.670859,-73.91355399999999,Level 3,Level 3,CPE250C-500-CCS1-CHD,Reachable,INUSE,NONE,Available,1,0,0,1,2026-02-03T18:26:38Z,2026-02-03T18:33:15.790551+00:00
NYC FLEET / DOE_X445-1,75 W 205th St,The Bronx,New York,10468,40.878475,-73.890396,Level 2,Level 2,CT4020-HD2-GW-LTE,Reachable,AVAILABLE,NONE,Available,2,0,0,2,2026-02-03T18:30:30Z,2026-02-03T18:33:15.790551+00:00
NYC FLEET / NYPD_75PCT-1,1000 Sutter Ave Back lot,Brooklyn,New York,11208,40.67114971226693,-73.88140219814758,Level 2,Level 2,CPF50-L18,Unreachable,UNREACHABLE,NONE,Available,1,0,0,1,2025-07-26T12:57:21Z,2026-02-03T18:33:15.790551+00:00
NYC FLEET / DEPNRVWWTP_9_L3,735 W 135th St,New York,New York,10031,40.82144649288168,-73.95827900740966,Level 3,Level 3,CPE250C-500-CCS1-CHD,Reachable,AVAILABLE,NONE,Available,1,0,0,1,2026-02-03T18:24:26Z,2026-02-03T18:33:15.790551+00:00
NYC FLEET / DEPNRVWWTP13_L3,735 W 135th St,New York,New York,10031,40.821592635642034,-73.9582146343933,Level 3,Level 3,CPE250C-500-CCS1-CHD,Reachable,INUSE,NONE,Charging,1,1,0,0,2026-02-03T18:31:40Z,2026-02-03T18:33:15.790551+00:00
NYC FLEET / DEPNRVWWTP_8_L3,725 W 135th St,New York,New York,10031,40.82134906419593,-73.95789276931151,Level 3,Level 3,CPE250C-500-CCS1-CHD,Reachable,INUSE,NONE,Charging,1,1,0,0,2026-02-03T18:23:30Z,2026-02-03T18:33:15.790551+00:00
NYC FLEET / DEPNRVWWTP11_L3,735 W 135th St,New York,New York,10031,40.82178749215503,-73.95802151534423,Level 3,Level 3,CPE250C-500-CCS1-CHD,Reachable,AVAILABLE,NONE,Available,1,0,0,1,2026-02-03T18:28:34Z,2026-02-03T18:33:15.790551+00:00
NYC FLEET / DEPNRVWWTP12_L3,735 W 135th St,New York,New York,10031,40.82164134982398,-73.95819317672118,Level 3,Level 3,CPE250C-500-CCS1-CHD,Reachable,AVAILABLE,NONE,Available,1,0,0,1,2026-02-03T18:32:33Z,2026-02-03T18:33:15.790551+00:00
NYC FLEET / DPR_FPSHOPS-1,82-92 88th Pl,Queens,New York,11385,40.70157303203185,-73.8585628,Level 2,Level 2,CT4020-HD-GW,Reachable,AVAILABLE,NONE,Available,2,0,0,2,2026-02-03T18:24:26Z,2026-02-03T18:33:15.790551+00:00
NYC FLEET / DOT_BAT-#1,140 58th St,Brooklyn,New York,11220,40.64544447557604,-74.02375522513124,Level 2,Level 2,CPF50-L18,Unreachable,UNREACHABLE,NONE,Available,1,0,0,1,2025-07-08T19:02:56Z,2026-02-03T18:33:15.790551+00:00
NYC FLEET / DOE_X084-#1,1434 Longfellow Avenue,The Bronx,New York,10459,40.830528125238,-73.886653665579,Level 2,Level 2,CT4020-HD2-GW-LTE,Reachable,AVAILABLE,NONE,Available,2,0,0,2,2026-02-03T18:31:08Z,2026-02-03T18:33:15.790551+00:00
NYC FLEET / DPR_OVRLK_B1_L3,80-30 Park Ln,Queens,New York,11415,40.7107382,-73.8355066,Unknown,Unknown,900-00150-113NNN8S2,Unreachable,NEEDS SERVICE,Error in internal hard- or software component,Available,2,0,0,2,2024-07-05T14:45:09Z,2026-02-03T18:33:15.790551+00:00
NYC FLEET / DOE_18K860-#1,9517 Kings Hwy,Brooklyn,New York,11212,40.65972135070226,-73.92059988465576,Level 2,Level 2,CPF50-L18,Reachable,AVAILABLE,NONE,Available,1,0,0,1,2026-02-03T18:30:04Z,2026-02-03T18:33:15.790551+00:00
NYC FLEET / DOE_MCCUNE-#1,173 West 151st Street,New York,New York,10039,40.82436,-73.93579,Level 2,Level 2,CT4020-HD2-GW-LTE,Reachable,AVAILABLE,NONE,Available,2,0,0,2,2026-02-03T18:31:02Z,2026-02-03T18:33:15.790551+00:00
NYC FLEET / DOEVERNON_4_L3,44-36 Vernon Blvd,Queens,New York,11101,40.7495117,-73.9532241,Level 3,Level 3,CPE250C-500-CCS1-CHD,Reachable,INUSE,NONE,Charging,1,1,0,0,2026-02-03T18:23:26Z,2026-02-03T18:33:15.790551+00:00
NYC FLEET / DOEVERNON_3_L3,44-36 Vernon Blvd,Queens,New York,11101,40.74952033584028,-73.95322242361937,Level 3,Level 3,CPE250C-500-CCS1-CHD,Reachable,INUSE,NONE,Occupied,1,0,1,0,2026-02-03T18:31:54Z,2026-02-03T18:33:15.790551+00:00
NYC FLEET / DCAS_QBH_4_L3,120-55 Queens Boulevard,Queens,New York,11424,40.714250693132,-73.828495014211,Level 3,Level 3,CPE250C-500-CCS1-CHD,Reachable,INUSE,NONE,Occupied,1,0,1,0,2026-02-03T18:26:21Z,2026-02-03T18:33:15.790551+00:00
NYC FLEET / DOEVERNON_2_L3,44-36 Vernon Blvd,Queens,New York,11101,40.74964174547616,-73.95371762645874,Level 3,Level 3,CPE250C-500-CCS1-CHD,Reachable,INUSE,NONE,Occupied,1,0,1,0,2026-02-03T18:32:26Z,2026-02-03T18:33:15.790551+00:00
NYC FLEET / DOEVERNON_5_L3,44-36 Vernon Blvd,Queens,New York,11101,40.74959297845241,-73.95377127063904,Level 3,Level 3,CPE250C-500-CHD-CCS1,Reachable,AVAILABLE,NONE,Available,1,0,0,1,2026-02-03T18:31:53Z,2026-02-03T18:33:15.790551+00:00
NYC FLEET / DEP_PRTRCH_1_L3,1801 Richmond Terrace,Staten Island,New York,10310,40.638793520992,-74.125089624234,Level 3,Level 3,CPE250C-500-CHD-CCS1,Reachable,AVAILABLE,NONE,Available,1,0,0,1,2026-02-03T18:30:06Z,2026-02-03T18:33:15.790551+00:00
NYC FLEET / DEP_PRTRCH_2_L3,1741 Richmond Terrace,Staten Island,New York,10310,40.6387685833045,-74.12501402908953,Level 3,Level 3,CPE250C-500-CHD-CCS1,Reachable,AVAILABLE,NONE,Available,1,0,0,1,2026-02-03T18:30:01Z,2026-02-03T18:33:15.790551+00:00
NYC FLEET / DEP_PRTRCH_3_L3,1801 Richmond Terrace,Staten Island,New York,10310,40.637318970072,-74.124362165953,Level 3,Level 3,CPE250C-500-CCS1-CHD,Reachable,INUSE,NONE,Occupied,1,0,1,0,2026-02-03T18:32:09Z,2026-02-03T18:33:15.790551+00:00
NYC FLEET / DEP_PRTRCH_4_L3,1801 Richmond Terrace,Staten Island,New York,10310,40.637551449604,-74.125224566765,Level 3,Level 3,CPE250C-500-CHD-CCS1,Reachable,INUSE,NONE,Charging,1,1,0,0,2026-02-03T18:32:32Z,2026-02-03T18:33:15.790551+00:00
NYC FLEET / NYPD_123PCT-#1,116 Main St,Staten Island,New York,10307,40.511776174834836,-74.25006838650819,Level 2,Level 2,CPF50-L18,Reachable,AVAILABLE,NONE,Available,1,0,0,1,2026-02-03T18:25:06Z,2026-02-03T18:33:15.790551+00:00
NYC FLEET / DOE_JFKHS#2,99 Terrace View Ave,New York,New York,10463,40.877037012243115,-73.91253645767212,Level 2,Level 2,CT4020-HD2-GW-LTE,Reachable,AVAILABLE,NONE,Available,2,0,0,2,2026-02-03T18:23:22Z,2026-02-03T18:33:15.790551+00:00
NYC FLEET / DOE_JFKHS#1,99 Terrace View Avenue,New York,New York,10463,40.877517921327,-73.912426355407,Level 2,Level 2,CT4020-HD2-GW-LTE,Reachable,AVAILABLE,NONE,Available,2,0,0,2,2026-02-03T18:31:39Z,2026-02-03T18:33:15.790551+00:00
NYC FLEET / NYPD_FRNSC_2_L3,150-14 Jamaica Avenue,Queens,New York,11432,40.701905292693,-73.80337524635,Level 3,Level 3,CPE250C-500-CCS1-CHD,Reachable,AVAILABLE,NONE,Available,1,0,0,1,2026-02-03T18:26:18Z,2026-02-03T18:33:15.790551+00:00
NYC FLEET / NYPD_FRNSC_1_L3,150-14 Jamaica Avenue,Queens,New York,11432,40.701944421764,-73.803420026093,Level 3,Level 3,CPE250C-500-CCS1-CHD,Reachable,INUSE,NONE,Occupied,1,0,1,0,2026-02-03T18:29:26Z,2026-02-03T18:33:15.790551+00:00
NYC FLEET / NYPD_TD12_1_L3,460 Morris Park Avenue,The Bronx,New York,10460,40.84106222176,-73.872162476702,Level 3,Level 3,CPE250C-500-CCS1-CHD,Reachable,AVAILABLE,NONE,Available,1,0,0,1,2026-02-03T18:29:19Z,2026-02-03T18:33:15.790551+00:00
NYC FLEET / NYPD_TD12_2_L3,460 Morris Park Avenue,The Bronx,New York,10460,40.841058866123,-73.872186101816,Level 3,Level 3,CPE250C-500-CCS1-CHD,Reachable,AVAILABLE,NONE,Available,1,0,0,1,2026-02-03T18:25:45Z,2026-02-03T18:33:15.790551+00:00
NYC FLEET / DEP_GRWATR_1_L3,164-11 110th Avenue,Queens,New York,11433,40.695481235097,-73.787739178219,Level 3,Level 3,CPE250C-500-CCS1-CHD,Reachable,AVAILABLE,NONE,Available,1,0,0,1,2026-02-03T18:32:58Z,2026-02-03T18:33:15.790551+00:00
NYC FLEET / DEP_GRWATR_2_L3,164-11 110th Avenue,Queens,New York,11433,40.695525398026,-73.787662939605,Level 3,Level 3,CPE250C-500-CCS1-CHD,Reachable,AVAILABLE,NONE,Available,1,0,0,1,2026-02-03T18:26:35Z,2026-02-03T18:33:15.790551+00:00
NYC FLEET / DEP_GRWATR_3_L3,164-21 110th Avenue,Queens,New York,11433,40.695123643844,-73.787557295978,Level 3,Level 3,CPE250C-500-CCS1-CHD,Reachable,AVAILABLE,NONE,Available,1,0,0,1,2026-02-03T18:25:23Z,2026-02-03T18:33:15.790551+00:00
NYC FLEET / DOC_FMRDPLUMB#1,0 Hazen St,The Bronx,New York,11370,40.79534118099871,-73.88728625816653,Level 2,Level 2,CT4020-HD-GW,Unreachable,UNREACHABLE,NONE,Available,2,0,0,2,2026-02-03T18:01:35Z,2026-02-03T18:33:15.790551+00:00
NYC FLEET / DEP_BKSEWR_1_L3,855 Remsen Ave,Brooklyn,New York,11236,40.646782,-73.912704,Level 3,Level 3,CPE250C-500-CCS1-CHD,Reachable,AVAILABLE,NONE,Available,1,0,0,1,2026-02-03T18:26:22Z,2026-02-03T18:33:15.790551+00:00
NYC FLEET / NYPD_71PCT_2_L3,421 Empire Boulevard,Brooklyn,New York,11225,40.664246003092,-73.947887295476,Level 3,Level 3,CPE250C-500-CCS1-CHD,Reachable,AVAILABLE,NONE,Available,1,0,0,1,2026-02-03T18:23:22Z,2026-02-03T18:33:15.790551+00:00
NYC FLEET / NYPD_71PCT_1_L3,421 Empire Boulevard,Brooklyn,New York,11225,40.664409110339,-73.947936623982,Level 3,Level 3,CPE250C-500-CCS1-CHD,Reachable,AVAILABLE,NONE,Available,1,0,0,1,2026-02-03T18:30:39Z,2026-02-03T18:33:15.790551+00:00
NYC FLEET / DEP_BKSEWR_2_L3,855 Remsen Avenue,Brooklyn,New York,11236,40.64676,-73.91279,Level 3,Level 3,CPE250C-500-CCS1-CHD,Reachable,INUSE,NONE,Charging,1,1,0,0,2026-02-03T18:24:55Z,2026-02-03T18:33:15.790551+00:00
NYC FLEET / NYPD107PCT_1_L3,71-01 Parsons Boulevard,Queens,New York,11365,40.730151137348,-73.810414393263,Level 3,Level 3,CPE250C-500-CCS1-CHD,Reachable,AVAILABLE,NONE,Available,1,0,0,1,2026-02-03T18:25:27Z,2026-02-03T18:33:15.790551+00:00
NYC FLEET / DEP_BKSEWR_3_L3,855 Remsen Avenue,Brooklyn,New York,11236,40.64671,-73.912895,Level 3,Level 3,CPE250C-500-CCS1-CHD,Reachable,INUSE,NONE,Charging,1,1,0,0,2026-02-03T18:27:10Z,2026-02-03T18:33:15.790551+00:00
NYC FLEET / DEP_BKSEWR_4_L3,855 Remsen Avenue,Brooklyn,New York,11236,40.64671,-73.912926,Level 3,Level 3,CPE250C-500-CCS1-CHD,Reachable,AVAILABLE,NONE,Available,1,0,0,1,2026-02-03T18:24:35Z,2026-02-03T18:33:15.790551+00:00
NYC FLEET / DOT_WAVEST-#1,34 Wave St,Staten Island,New York,10304,40.6294118,-74.0759545,Level 2,Level 2,CT4020-HD2-GW-LTE,Reachable,AVAILABLE,NONE,Available,2,1,0,1,2026-02-03T18:23:18Z,2026-02-03T18:33:15.790551+00:00
NYC FLEET / DEP_Q7-1,133-25 32nd Ave,Queens,New York,11354,40.7673296,-73.8353247,Level 2,Level 2,CT4020-HD-GW,Reachable,AVAILABLE,NONE,Available,2,0,0,2,2026-02-03T18:29:59Z,2026-02-03T18:33:15.790551+00:00
NYC FLEET / DEP_MNSEWR_1_L3,886 Saint Nicholas Avenue,New York,New York,10032,40.830177,-73.94117,Level 3,Level 3,CPE250C-500-CCS1-CHD,Reachable,AVAILABLE,NONE,Available,1,0,0,1,2026-02-03T18:29:03Z,2026-02-03T18:33:15.790551+00:00
NYC FLEET / DEP_MNSEWR_2_L3,886 Saint Nicholas Avenue,New York,New York,10032,40.830162,-73.94107,Level 3,Level 3,CPE250C-500-CCS1-CHD,Unreachable,NEEDS SERVICE,Powered Off,Available,1,0,0,1,2024-10-17T14:03:06Z,2026-02-03T18:33:15.790551+00:00
NYC FLEET / DEP_HNTSPT_3_L3,1270 Ryawa Avenue,The Bronx,New York,10474,40.804493,-73.88505,Level 3,Level 3,CPE250C-500-CCS1-CHD,Reachable,AVAILABLE,NONE,Available,1,0,0,1,2026-02-03T18:28:38Z,2026-02-03T18:33:15.790551+00:00
NYC FLEET / DEP_HNTSPT_4_L3,1270 Ryawa Avenue,The Bronx,New York,10474,40.804573423184,-73.885028542328,Level 3,Level 3,CPE250C-500-CCS1-CHD,Unreachable,UNREACHABLE,NONE,Available,1,0,0,1,2026-02-03T14:54:07Z,2026-02-03T18:33:15.790551+00:00
NYC FLEET / DEP_HNTSPT_5_L3,1270 Ryawa Avenue,The Bronx,New York,10474,40.804352364656,-73.88499635582,Level 3,Level 3,CPE250C-500-CCS1-CHD,Reachable,AVAILABLE,NONE,Available,1,0,0,1,2026-02-03T18:24:38Z,2026-02-03T18:33:15.790551+00:00
NYC FLEET / DEP_HNTSPT_6_L3,1270 Ryawa Avenue,The Bronx,New York,10474,40.804183123261,-73.884907842922,Level 3,Level 3,CPE250C-500-CCS1-CHD,Reachable,AVAILABLE,NONE,Available,1,0,0,1,2026-02-03T18:28:50Z,2026-02-03T18:33:15.790551+00:00
NYC FLEET / DEP_HUDRIVPUMP1,199 River Rd N,Wappingers Falls,New York,12590,41.56122208347125,-73.95710263862306,Level 2,Level 2,CT4020-HD-GW,Reachable,AVAILABLE,NONE,Available,2,0,0,2,2026-02-03T18:30:28Z,2026-02-03T18:33:15.790551+00:00
NYC FLEET / DEP_HUDRIVPUMP2,199 River Rd N,Wappingers Falls,New York,12590,41.561198,-73.9572743,Level 2,Level 2,CT4020-HD-GW,Reachable,AVAILABLE,NONE,Available,2,0,0,2,2026-02-03T18:29:26Z,2026-02-03T18:33:15.790551+00:00
NYC FLEET / DEPNRVWWTP10_L3,735 W 135th St,New York,New York,10031,40.82167382592532,-73.95791422698363,Level 3,Level 3,CPE250C-500-CCS1-CHD,Reachable,INUSE,NONE,Charging,1,1,0,0,2026-02-03T18:27:16Z,2026-02-03T18:33:15.790551+00:00
NYC FLEET / DEP_HNTSPT_1_L3,1270 Ryawa Avenue,The Bronx,New York,10474,40.804493727469,-73.884698203148,Level 3,Level 3,CPE250C-500-CCS1-CHD,Reachable,AVAILABLE,NONE,Available,1,0,0,1,2026-02-03T18:30:06Z,2026-02-03T18:33:15.790551+00:00
NYC FLEET / DEP_HNTSPT_2_L3,1270 Ryawa Avenue,The Bronx,New York,10474,40.804658361753,-73.885045271164,Level 3,Level 3,CPE250C-500-CCS1-CHD,Reachable,AVAILABLE,NONE,Available,1,0,0,1,2026-02-03T18:29:53Z,2026-02-03T18:33:15.790551+00:00
NYC FLEET / DEP_MARGWW#1,41158 New York 28,Margaretville,New York,12455,42.139233351719,-74.653802255092,Level 2,Level 2,CT4020-HD-GW,Reachable,AVAILABLE,NONE,Available,2,0,0,2,2026-02-03T18:24:55Z,2026-02-03T18:33:15.790551+00:00
NYC FLEET / NYPD_121PCT#1,970 Richmond Ave,Staten Island,New York,10314,40.62366835678802,-74.15003236375428,Level 2,Level 2,CPF50-L18,Reachable,INUSE,NONE,Occupied,1,0,1,0,2026-02-03T18:28:17Z,2026-02-03T18:33:15.790551+00:00
NYC FLEET / NYPD_121PCT#2,970 Richmond Ave,Staten Island,New York,10314,40.62366021357505,-74.15056880555726,Level 2,Level 2,CPF50-L18,Reachable,AVAILABLE,NONE,Available,1,0,0,1,2026-02-03T18:28:17Z,2026-02-03T18:33:15.790551+00:00
NYC FLEET / NYPD_121PCT#3,970 Sanders St,Staten Island,New York,10314,40.62366835678802,-74.15079411111451,Level 2,Level 2,CPF50-L18,Reachable,AVAILABLE,NONE,Available,1,0,0,1,2026-02-03T18:27:45Z,2026-02-03T18:33:15.790551+00:00
NYC FLEET / NYPD_121PCT#4,970 Richmond Ave,Staten Island,New York,10314,40.62366021357505,-74.15019329629517,Level 2,Level 2,CPF50-L18,Reachable,INUSE,NONE,Available,1,0,0,1,2026-02-03T18:27:45Z,2026-02-03T18:33:15.790551+00:00
NYC FLEET / NYPD_121PCT#5,970 Richmond Ave,Staten Island,New York,10314,40.62362764071328,-74.14988216004944,Level 2,Level 2,CPF50-L18,Reachable,AVAILABLE,NONE,Available,1,0,0,1,2026-02-03T18:27:45Z,2026-02-03T18:33:15.790551+00:00
NYC FLEET / NYPD_121PCT#6,970 Richmond Ave,Staten Island,New York,10314,40.623635783930204,-74.15024694047547,Level 2,Level 2,CPF50,Reachable,AVAILABLE,NONE,Available,1,0,0,1,2026-02-03T18:27:45Z,2026-02-03T18:33:15.790551+00:00
NYC FLEET / FDNY_BFIBK#1,5600 1st Ave,Brooklyn,New York,11220,40.64955863954405,-74.02440137116393,Level 2,Level 2,CPF50-L18,Reachable,AVAILABLE,NONE,Available,1,0,0,1,2026-02-03T18:27:48Z,2026-02-03T18:33:15.790551+00:00
NYC FLEET / DEP_PRTRCH_5_L3,1801 Richmond Terrace,Staten Island,New York,10310,40.637273115479,-74.124415574508,Level 3,Level 3,CPE250C-500-CHD-CCS1,Reachable,AVAILABLE,NONE,Available,1,0,0,1,2026-02-03T18:30:02Z,2026-02-03T18:33:15.790551+00:00
NYC FLEET / DPRWFMARNA_1_L3,1 Marina Road,Queens,New York,11369,40.760610670245,-73.856970458895,Level 3,Level 3 - Public Stations,CPE250C-500-CCS1-CHD,Reachable,NEEDS SERVICE,Power System Failed,Available,1,0,0,1,2026-02-03T18:23:20Z,2026-02-03T18:33:15.790551+00:00
NYC FLEET / DEP_KNGSTN_1_L3,71 Smith Avenue,Kingston,New York,12401,41.930180103269,-73.999622846091,Level 3,Level 3,CPE250C-500-CCS1-CHD,Reachable,AVAILABLE,NONE,Available,1,0,0,1,2026-02-03T18:31:54Z,2026-02-03T18:33:15.790551+00:00
NYC FLEET / NYPD_73PCT_3_L3,1470 East New York Avenue,Brooklyn,New York,11212,40.67033,-73.914375,Level 3,Level 3,CPE250C-500-CCS1-CHD,Reachable,AVAILABLE,NONE,Available,1,0,0,1,2026-02-03T18:31:58Z,2026-02-03T18:33:15.790551+00:00
NYC FLEET / NYPD_73PCT_4_L3,1470 East New York Avenue,Brooklyn,New York,11212,40.67067,-73.91353,Level 3,Level 3,CPE250C-500-CCS1-CHD,Reachable,INUSE,NONE,Occupied,1,0,1,0,2026-02-03T18:29:21Z,2026-02-03T18:33:15.790551+00:00
NYC FLEET / DOE_715OCNTER#1,715 Ocean Terrace,Staten Island,New York,10301,40.60842327777439,-74.10476986085204,Level 2,Level 2,CPF50-L18,Reachable,AVAILABLE,NONE,Available,1,0,0,1,2026-02-03T18:29:04Z,2026-02-03T18:33:15.790551+00:00
NYC FLEET / DOE_715OCNTER#2,715 Ocean Terrace,Staten Island,New York,10301,40.60832553685289,-74.10509172593383,Level 2,Level 2,CPF50-L18,Reachable,INUSE,NONE,Available,1,0,0,1,2026-02-03T18:29:04Z,2026-02-03T18:33:15.790551+00:00
NYC FLEET / FDNY9METROTECH1,307 Bridge St,Brooklyn,New York,11201,40.69449951978331,-73.9848259674591,Level 2,Level 2,CPF50-L18,Reachable,INUSE,NONE,Charging,1,1,0,0,2026-02-03T18:23:42Z,2026-02-03T18:33:15.790551+00:00
NYC FLEET / FDNY9METROTECH2,15 MetroTech Center,Brooklyn,New York,11201,40.6941415977147,-73.98458993306579,Level 2,Level 2,CPF50-L18,Reachable,INUSE,NONE,Charging,1,1,0,0,2026-02-03T18:23:42Z,2026-02-03T18:33:15.790551+00:00
NYC FLEET / FDNY9METROTECH4,15 MetroTech Center,Brooklyn,New York,11201,40.69415786694136,-73.98420369496765,Level 2,Level 2,CPF50-L18,Reachable,INUSE,NONE,Occupied,1,0,1,0,2026-02-03T18:23:42Z,2026-02-03T18:33:15.790551+00:00
NYC FLEET / DEP_7WARDS#1,7 Ward's Island Bridge,New York,New York,10035,40.792626,-73.92243429999999,Level 2,Level 2,CT4020-HD-GW,Reachable,AVAILABLE,NONE,Available,2,0,0,2,2026-02-03T18:25:02Z,2026-02-03T18:33:15.790551+00:00
NYC FLEET / DEP_ARKVLE_1_L3,669 County Road 38,Arkville,New York,12406,42.156950786398,-74.619975564413,Level 3,Level 3 - Public Stations,CPE250C-500-CCS1-CHD,Reachable,INUSE,NONE,Charging,1,1,0,0,2026-02-03T18:27:52Z,2026-02-03T18:33:15.790551+00:00
NYC FLEET / DPR_RANDALLS#1,126 Hell Gate Circle,New York,New York,10035,40.787133733839,-73.929323423996,Level 2,Level 2,CT4020-HD2-GW-LTE,Reachable,AVAILABLE,NONE,Available,2,0,0,2,2026-02-03T18:31:04Z,2026-02-03T18:33:15.790551+00:00
NYC FLEET / DPR_HIGHBRPOOL1,2301 Amsterdam Avenue,New York,New York,10033,40.842149915617,-73.9341298239,Level 2,Level 2,CT4020-HD2-GW-LTE,Reachable,AVAILABLE,NONE,Available,2,0,0,2,2026-02-03T18:23:25Z,2026-02-03T18:33:15.790551+00:00
NYC FLEET / DOE_KNGHWY197#1,1599 E 22nd St,Brooklyn,New York,11210,40.61243641083861,-73.95151562513122,Level 2,Level 2,CPF50-L18,Unreachable,UNREACHABLE,NONE,Available,1,0,0,1,2025-09-29T14:58:51Z,2026-02-03T18:33:15.790551+00:00
NYC FLEET / DOE_BXPS14#1,3047 Bruckner Blvd,The Bronx,New York,10461,40.83570141348234,-73.82593167116394,Level 2,Level 2,CT4020-HD2-GW-LTE,Reachable,AVAILABLE,NONE,Available,2,0,0,2,2026-02-03T18:32:55Z,2026-02-03T18:33:15.790551+00:00
NYC FLEET / NYCHA_LEX-S1,1774 3rd Ave,New York,New York,10029,40.7869486,-73.9484263,Level 2,Level 2 - Solar,CT4010-HD2-GW-LTE,Unreachable,UNREACHABLE,NONE,Available,1,0,0,1,2025-12-07T03:49:06Z,2026-02-03T18:33:15.790551+00:00
NYC FLEET / DPR_ARAMRK_1_L3,850 East 138th Street,The Bronx,New York,10454,40.803045814166,-73.909490508517,Level 3,Level 3,CPE250C-500-CCS1-CHD,Reachable,AVAILABLE,NONE,Available,1,0,0,1,2026-02-03T18:30:35Z,2026-02-03T18:33:15.790551+00:00
NYC FLEET / DPR_ARAMRK_2_L3,850 East 138th Street,The Bronx,New York,10454,40.803108847796,-73.909556455292,Level 3,Level 3,CPE250C-500-CCS1-CHD,Reachable,AVAILABLE,NONE,Available,1,0,0,1,2026-02-03T18:23:19Z,2026-02-03T18:33:15.790551+00:00
NYC FLEET / DEP_26WRDP_4_L3,12266 Flatlands Avenue,Brooklyn,New York,11207,40.653756247066,-73.880328113408,Level 3,Level 3,CPE250C-500-CCS1-CHD,Reachable,AVAILABLE,NONE,Available,1,0,0,1,2026-02-03T18:23:33Z,2026-02-03T18:33:15.790551+00:00
NYC FLEET / DEP_PTJRVS_1_L3,46 North Maple Avenue,Port Jervis,New York,12771,41.362271732934,-74.681787282719,Level 3,Level 3,CPE250C-500-CCS1-CHD,Reachable,AVAILABLE,NONE,Available,1,0,0,1,2026-02-03T18:30:40Z,2026-02-03T18:33:15.790551+00:00
NYC FLEET / DOE_PS65#1,677 East 141st Street,The Bronx,New York,10454,40.808058849402,-73.912894148921,Level 2,Level 2,CT4020-HD2-GW-LTE,Reachable,AVAILABLE,NONE,Available,2,0,0,2,2026-02-03T18:29:54Z,2026-02-03T18:33:15.790551+00:00
NYC FLEET / DEP_QNSRPR_2_L3,106-36 180th St,Queens,New York,11433,40.702955651802945,-73.77781344049284,Level 3,Level 3,CPE250C-500-CCS1-CHD,Reachable,INUSE,NONE,Charging,1,1,0,0,2026-02-03T18:32:08Z,2026-02-03T18:33:15.790551+00:00
NYC FLEET / DEP_QNSRPR_1_L3,106-36 180th St,Queens,New York,11433,40.70295921022579,-73.77784227423975,Level 3,Level 3,CPE250C-500-CHD-CCS1,Reachable,INUSE,NONE,Charging,1,1,0,0,2026-02-03T18:32:21Z,2026-02-03T18:33:15.790551+00:00
NYC FLEET / FDNY_FTOTTEN#1,402 Murray Ave,Queens,New York,11359,40.79352475506584,-73.7776962116394,Level 2,Level 2,CPF50-L18,Reachable,INUSE,NONE,Available,1,0,0,1,2026-02-03T18:27:10Z,2026-02-03T18:33:15.790551+00:00
NYC FLEET / FDNY_FTOTTEN#2,402 Murray Ave,Queens,New York,11359,40.79344353033537,-73.77776058465575,Level 2,Level 2,CPF50-L18,Reachable,AVAILABLE,NONE,Available,1,0,0,1,2026-02-03T18:27:10Z,2026-02-03T18:33:15.790551+00:00
NYC FLEET / DEP_JRMRES_1_L3,3055 Goulden Avenue,The Bronx,New York,10468,40.878025821862,-73.892735583695,Level 3,Level 3,CPE250C-500-CCS1-CHD,Reachable,AVAILABLE,NONE,Available,1,0,0,1,2026-02-03T18:31:35Z,2026-02-03T18:33:15.790551+00:00
NYC FLEET / DEP_TANNRSVLE-1,130 Allen Lane,Tannersville,New York,12485,42.187353459221,-74.150403759039,Level 2,Level 2,CT4020-HD-GW,Unreachable,UNREACHABLE,NONE,Available,2,0,0,2,2026-02-03T08:00:29Z,2026-02-03T18:33:15.790551+00:00
NYC FLEET / DEP_TNRVLE_1_L3,130 Allen Lane,Tannersville,New York,12485,42.187346564152,-74.150430271262,Level 3,Level 3,CPE250C-500-CCS1-CHD,Reachable,AVAILABLE,NONE,Available,1,0,0,1,2026-02-03T18:31:38Z,2026-02-03T18:33:15.790551+00:00
NYC FLEET / DEP_179PMP_2_L3,2405 Amsterdam Avenue,New York,New York,10033,40.846778051365,-73.931139354877,Level 3,Level 3,CPE250C-500-CCS1-CHD,Reachable,AVAILABLE,NONE,Available,1,0,0,1,2026-02-03T18:25:31Z,2026-02-03T18:33:15.790551+00:00
NYC FLEET / DEP_179PMP_1_L3,2405 Amsterdam Avenue,New York,New York,10033,40.846815163658,-73.931238250082,Level 3,Level 3,CPE250C-500-CCS1-CHD,Reachable,AVAILABLE,NONE,Available,1,0,0,1,2026-02-03T18:32:29Z,2026-02-03T18:33:15.790551+00:00
NYC FLEET / DEP_GRNGRG_1_L3,570 Van Aken Road,Grand Gorge,New York,12434,42.361946282402,-74.473760672484,Level 3,Level 3,CPE250C-500-CCS1-CHD,Reachable,AVAILABLE,NONE,Available,1,0,0,1,2026-02-03T18:28:16Z,2026-02-03T18:33:15.790551+00:00
NYC FLEET / DSNY_QW6-DCFC1,2720 53rd Avenue,Queens,New York,11377,40.733692545882,-73.907930414221,Level 3,Level 3,CPE250C-500-CCS1-CHD,Reachable,AVAILABLE,NONE,Available,1,0,0,1,2026-02-03T18:31:09Z,2026-02-03T18:33:15.790551+00:00
NYC FLEET / DSNY_QW3-DCFC2,2720 53rd Avenue,Queens,New York,11377,40.733600200634,-73.908945463454,Level 3,Level 3,CPE250C-500-CCS1-CHD,Reachable,AVAILABLE,NONE,Available,1,0,0,1,2026-02-03T18:26:20Z,2026-02-03T18:33:15.790551+00:00
NYC FLEET / DSNY_QW3-DCFC1,2720 53rd Avenue,Queens,New York,11377,40.733532109631,-73.908973049314,Level 3,Level 3,CPE250C-500-CCS1-CHD,Reachable,AVAILABLE,NONE,Available,1,0,0,1,2026-02-03T18:23:03Z,2026-02-03T18:33:15.790551+00:00
NYC FLEET / DSNY_QW6-DCFC2,27-20 53rd Ave,Queens,New York,11377,40.7335946,-73.9078257,Level 3,Level 3,CPE250C-500-CCS1-CHD,Reachable,AVAILABLE,NONE,Available,1,0,0,1,2026-02-03T18:24:36Z,2026-02-03T18:33:15.790551+00:00
NYC FLEET / HRA_BSHWCK_1_L3,95 Evergreen Avenue,Brooklyn,New York,11206,40.700187769492,-73.931837215651,Level 3,Level 3,CPE250C-500-CCS1-CHD,Reachable,AVAILABLE,NONE,Available,1,0,0,1,2026-02-03T18:29:13Z,2026-02-03T18:33:15.790551+00:00
NYC FLEET / HRA_BSHWCK_2_L3,95 Evergreen Avenue,Brooklyn,New York,11206,40.700147115573,-73.931809388895,Level 3,Level 3,CPE250C-500-CCS1-CHD,Reachable,AVAILABLE,NONE,Available,1,0,0,1,2026-02-03T18:26:42Z,2026-02-03T18:33:15.790551+00:00
NYC FLEET / DOE_R826#1,6581 Hylan Blvd,Staten Island,New York,10309,40.51080188479824,-74.22020313862306,Level 2,Level 2,CPF50-L18,Reachable,AVAILABLE,NONE,Available,1,0,0,1,2026-02-03T18:23:52Z,2026-02-03T18:33:15.790551+00:00
NYC FLEET / NYPD_32PCT#2,242 W 135th St,New York,New York,10030,40.8156169233911,-73.94526234047548,Level 2,Level 2,CPF50-L23,Reachable,AVAILABLE,NONE,Available,1,0,0,1,2026-02-03T18:25:31Z,2026-02-03T18:33:15.790551+00:00
NYC FLEET / DOC_GMDCREAR#1,15-15 Hazen Street,The Bronx,New York,11370,40.79160682564,-73.882006863936,Level 2,Level 2,CT4020-HD-GW,Reachable,AVAILABLE,NONE,Available,2,0,0,2,2026-02-03T18:28:43Z,2026-02-03T18:33:15.790551+00:00
NYC FLEET / DPR_ZOOGARAGE-2,830 5th Avenue,New York,New York,10065,40.767017556979,-73.97265371485,Level 2,Level 2,CT4020-HD2-GW-LTE,Reachable,AVAILABLE,NONE,Available,2,0,0,2,2026-02-03T18:28:51Z,2026-02-03T18:33:15.790551+00:00
NYC FLEET / DPR_ZOOGARAGE-1,830 5th Avenue,New York,New York,10065,40.766848387495,-73.972585416319,Level 2,Level 2,CT4020-HD2-GW-LTE,Reachable,AVAILABLE,NONE,Available,2,0,0,2,2026-02-03T18:32:59Z,2026-02-03T18:33:15.790551+00:00
NYC FLEET / DOT_PTIVRY_1_L3,3551 Richmond Terrace,Staten Island,New York,10303,40.640873885666,-74.17361535093,Level 3,Level 3,CPE250C-500-CCS1-CHD,Reachable,AVAILABLE,NONE,Available,1,0,0,1,2026-02-03T18:30:07Z,2026-02-03T18:33:15.790551+00:00
NYC FLEET / DEPNTWNOFFICE-1,329 Greenpoint Avenue,Brooklyn,New York,11222,40.731281376917,-73.947979867384,Level 2,Level 2,CT4020-HD-GW,Reachable,AVAILABLE,NONE,Available,2,0,0,2,2026-02-03T18:31:36Z,2026-02-03T18:33:15.790551+00:00
NYC FLEET / DEPNTWNOFFICE-2,329 Greenpoint Avenue,Brooklyn,New York,11222,40.731269828081,-73.948135641045,Level 2,Level 2,CT4020-HD-GW,Reachable,AVAILABLE,NONE,Available,2,0,0,2,2026-02-03T18:23:50Z,2026-02-03T18:33:15.790551+00:00
NYC FLEET / DEPNTWNOFFICE-3,329 Greenpoint Avenue,Brooklyn,New York,11222,40.731270066611,-73.94818243122,Level 2,Level 2,CT4020-HD-GW,Reachable,AVAILABLE,NONE,Available,2,0,0,2,2026-02-03T18:24:21Z,2026-02-03T18:33:15.790551+00:00
NYC FLEET / DEPNTWNOFFICE-4,329 Greenpoint Avenue,Brooklyn,New York,11222,40.731287872396,-73.948336870998,Level 2,Level 2,CT4020-HD-GW,Reachable,INUSE,NONE,Available,2,1,0,1,2026-02-03T18:24:21Z,2026-02-03T18:33:15.790551+00:00
NYC FLEET / DEPNTWNOFFICE-5,329 Greenpoint Avenue,Brooklyn,New York,11222,40.731239594469,-73.948509509328,Level 2,Level 2,CT4020-HD-GW,Reachable,INUSE,NONE,Charging,2,1,1,0,2026-02-03T18:27:18Z,2026-02-03T18:33:15.790551+00:00
NYC FLEET / DEPNTWNOFFICE-6,329 Greenpoint Avenue,Brooklyn,New York,11222,40.731250905162,-73.948398278293,Level 2,Level 2,CT4020-HD-GW,Reachable,INUSE,NONE,Charging,2,1,1,0,2026-02-03T18:31:23Z,2026-02-03T18:33:15.790551+00:00
NYC FLEET / DEPNTWNOFFICE-7,329 Greenpoint Avenue,Brooklyn,New York,11222,40.731197202988,-73.948834825627,Level 2,Level 2,CT4020-HD-GW,Reachable,AVAILABLE,NONE,Available,2,0,0,2,2026-02-03T18:31:54Z,2026-02-03T18:33:15.790551+00:00
NYC FLEET / DPRCUNINGHM7A-B,196-03 Grand Central Pkwy,Queens,New York,11423,40.7250256,-73.77180369999999,Level 2,Level 2,CT4020-HD2-GW-LTE,Unreachable,NEEDS SERVICE,Powered Off,Available,2,0,0,2,2025-01-14T15:20:12Z,2026-02-03T18:33:15.790551+00:00
NYC FLEET / DEP_CFP_2_L3,3701 Jerome Avenue,The Bronx,New York,10467,40.887313440651,-73.881463713411,Level 3,Level 3,CPE250C-500-CCS1-CHD,Reachable,AVAILABLE,NONE,Available,1,0,0,1,2026-02-03T18:28:41Z,2026-02-03T18:33:15.790551+00:00
NYC FLEET / DOE_R002#1,333 Midland Ave,Staten Island,New York,10306,40.57720260450866,-74.10027322513123,Level 2,Level 2,CPF50-L18,Reachable,AVAILABLE,NONE,Available,1,0,0,1,2026-02-03T18:28:39Z,2026-02-03T18:33:15.790551+00:00
NYC FLEET / DEP_SUTTON_1_L3,465 Columbus Avenue,Valhalla,New York,10595,41.107090535663,-73.78121101813,Level 3,Level 3,CPE250C-500-CCS1-CHD,Reachable,AVAILABLE,NONE,Available,1,0,0,1,2026-02-03T18:23:47Z,2026-02-03T18:33:15.790551+00:00
NYC FLEET / DEP_SUTTON_2_L3,465 Columbus Avenue,Valhalla,New York,10595,41.107088759853,-73.781202981176,Level 3,Level 3,CPE250C-500-CCS1-CHD,Reachable,INUSE,NONE,Occupied,1,0,1,0,2026-02-03T18:31:52Z,2026-02-03T18:33:15.790551+00:00
NYC FLEET / DOC_HAZENDCFC,14- 14 Hazen Street,The Bronx,New York,11370,40.79468368883,-73.88397475802,Level 3,Level 3,CPE250C-500-CCS1-CHD,Reachable,INUSE,NONE,Charging,1,1,0,0,2026-02-03T18:26:22Z,2026-02-03T18:33:15.790551+00:00
NYC FLEET / DOT_PIER36#1,299 South St,New York,New York,10002,40.7100453,-73.9862615,Level 2,Level 2,CT4020-HD2-GW-LTE,Reachable,AVAILABLE,NONE,Available,2,0,0,2,2026-02-03T18:28:14Z,2026-02-03T18:33:15.790551+00:00
NYC FLEET / DOT_PIER36#2,299 South St,New York,New York,10002,40.710053432671764,-73.98611129629516,Level 2,Level 2,CT4020-HD2-GW-LTE,Reachable,AVAILABLE,NONE,Available,2,0,0,2,2026-02-03T18:26:52Z,2026-02-03T18:33:15.790551+00:00
NYC FLEET / DOT_WHTHLLFRY-1,1 South Street,New York,New York,10004,40.701021496728,-74.013383382199,Level 2,Level 2,CT4020-HD2-GW-LTE,Reachable,AVAILABLE,NONE,Available,2,0,0,2,2026-02-03T18:29:36Z,2026-02-03T18:33:15.790551+00:00
NYC FLEET / DEP_AVIATN_1_L3,84 Citation Dr,Wappingers Falls,New York,12590,41.6290535,-73.88627819999999,Level 3,Level 3,CPE250C-500-CCS1-CHD,Unreachable,UNREACHABLE,NONE,Available,1,0,0,1,2025-07-14T19:03:50Z,2026-02-03T18:33:15.790551+00:00
NYC FLEET / DEP_AVIATN_2_L3,84 Citation Dr,Wappingers Falls,New York,12590,41.62908557755235,-73.88621919140165,Level 3,Level 3,CPE250C-500-CCS1-CHD,Unreachable,UNREACHABLE,NONE,Available,1,0,0,1,2025-07-14T18:57:52Z,2026-02-03T18:33:15.790551+00:00
NYC FLEET / DCAS_CSHLD_2_L3,6626 Metropolitan Avenue,Queens,New York,11379,40.710937871495,-73.890846016401,Level 3,Level 3,CPE250C-500-CCS1-CHD,Reachable,AVAILABLE,NONE,Available,1,0,0,1,2026-02-03T18:23:28Z,2026-02-03T18:33:15.790551+00:00
NYC FLEET / DCAS_CSHLD_1_L3,6626 Metropolitan Avenue,Queens,New York,11379,40.710928962236,-73.890848313027,Level 3,Level 3,CPE250C-500-CCS1-CHD,Reachable,AVAILABLE,NONE,Available,1,0,0,1,2026-02-03T18:29:54Z,2026-02-03T18:33:15.790551+00:00
NYC FLEET / DCAS_CSHLD_3_L3,66-26 Metropolitan Avenue,Queens,New York,11379,40.710921619913,-73.890737302925,Level 3,Level 3,CPE250C-500-CCS1-CHD,Reachable,AVAILABLE,NONE,Available,1,0,0,1,2026-02-03T18:26:19Z,2026-02-03T18:33:15.790551+00:00
NYC FLEET / DPR_STONEHNGE-1,1150 Clove Road,Staten Island,New York,10301,40.617853749586,-74.105476070741,Level 2,Level 2,CT4020-HD2-GW-LTE,Reachable,INUSE,NONE,Available,2,0,1,1,2026-02-03T18:27:01Z,2026-02-03T18:33:15.790551+00:00
NYC FLEET / DOT_ROSEDALE-1,240- 2 128th Ave,Queens,New York,11422,40.6815273,-73.7269799,Level 2,Level 2,CT4020-HD2-GW-LTE,Reachable,AVAILABLE,NONE,Available,2,0,0,2,2026-02-03T18:30:27Z,2026-02-03T18:33:15.790551+00:00
NYC FLEET / DOT_ROSEDALE-2,240- 2 128th Ave,Queens,New York,11422,40.68152730000001,-73.7269611245369,Level 2,Level 2,CT4020-HD2-GW-LTE,Reachable,AVAILABLE,NONE,Available,2,0,0,2,2026-02-03T18:31:33Z,2026-02-03T18:33:15.790551+00:00
NYC FLEET / DEP_SHFT10_1_L3,1286 U.S. 6,Carmel Hamlet,New York,10512,41.402311234041,-73.706274757746,Level 3,Level 3,CPE250C-500-CCS1-CHD,Reachable,AVAILABLE,NONE,Available,1,0,0,1,2026-02-03T18:23:17Z,2026-02-03T18:33:15.790551+00:00
NYC FLEET / DOT_BKDEPOT-1,140 58th Street,Brooklyn,New York,11220,40.64220846916,-74.026766009826,Level 2,Level 2,CT4020-HD2-GW-LTE,Reachable,AVAILABLE,NONE,Available,2,1,0,1,2026-02-03T18:27:37Z,2026-02-03T18:33:15.790551+00:00
NYC FLEET / DEP_ARKVILLE-3,669 County Road 38,Arkville,New York,12406,42.157671211077,-74.620231446827,Level 2,Level 2,CT4020-HD2-GW-LTE,Reachable,INUSE,NONE,Available,2,1,0,1,2026-02-03T18:25:37Z,2026-02-03T18:33:15.790551+00:00
NYC FLEET / DEP_ARKVILLE-2,669 County Road 38,Arkville,New York,12406,42.157669545091,-74.620302507687,Level 2,Level 2,CT4020-HD2-GW-LTE,Reachable,INUSE,NONE,Available,2,0,1,1,2026-02-03T18:29:06Z,2026-02-03T18:33:15.790551+00:00
NYC FLEET / DEP_ARKVILLE-4,669 County Road 38,Arkville,New York,12406,42.157662487619,-74.620177916618,Level 2,Level 2,CT4020-HD2-GW-LTE,Reachable,AVAILABLE,NONE,Available,2,0,0,2,2026-02-03T18:23:44Z,2026-02-03T18:33:15.790551+00:00
NYC FLEET / NYPD_WTC_1_L3,80 John Street,New York,New York,10038,40.708126167882,-74.006737081221,Level 3,Level 3,CPE250C-500-CCS1-CHD,Reachable,AVAILABLE,NONE,Available,1,0,0,1,2026-02-03T18:32:42Z,2026-02-03T18:33:15.790551+00:00
NYC FLEET / NYPD_WTC_2_L3,80 John Street,New York,New York,10038,40.708065949648,-74.006770220513,Level 3,Level 3,CPE250C-500-CCS1-CHD,Reachable,AVAILABLE,NONE,Available,1,0,0,1,2026-02-03T18:28:08Z,2026-02-03T18:33:15.790551+00:00
NYC FLEET / DOT_STRHSE_2_L3,66-26 Metropolitan Avenue,Queens,New York,11379,40.7113228044,-73.891880153679,Level 3,Level 3,CPE250C-500-CCS1-CHD,Reachable,INUSE,NONE,Charging,1,1,0,0,2026-02-03T18:27:32Z,2026-02-03T18:33:15.790551+00:00
NYC FLEET / DOT_STRHSE_1_L3,66-26 Metropolitan Avenue,Queens,New York,11379,40.711266699013,-73.891959693824,Level 3,Level 3,CPE250C-500-CCS1-CHD,Reachable,INUSE,NONE,Charging,1,1,0,0,2026-02-03T18:25:14Z,2026-02-03T18:33:15.790551+00:00
NYC FLEET / DOT_STORHOUSE-2,66-26 Metropolitan Avenue,Queens,New York,11379,40.711262013168,-73.892026238753,Level 2,Level 2,CT4020-HD2-GW-LTE,Reachable,AVAILABLE,NONE,Available,2,0,0,2,2026-02-03T18:25:27Z,2026-02-03T18:33:15.790551+00:00
NYC FLEET / DOT_STORHOUSE-1,66-26 Metropolitan Avenue,Queens,New York,11379,40.711268240068,-73.892065003709,Level 2,Level 2,CT4020-HD2-GW-LTE,Reachable,AVAILABLE,NONE,Available,2,0,0,2,2026-02-03T18:32:37Z,2026-02-03T18:33:15.790551+00:00
NYC FLEET / DSNY_Q13W-DCFC1,75-05 Douglaston Pkwy,Queens,New York,11362,40.74362937147849,-73.73350998465577,Level 3,Level 3,CPE250C-500-CCS1-CHD,Reachable,AVAILABLE,NONE,Available,1,0,0,1,2026-02-03T18:31:32Z,2026-02-03T18:33:15.790551+00:00
NYC FLEET / DSNY_Q11W-DCFC1,75-05 Douglaston Pkwy,Queens,New York,11362,40.7436944,-73.73355289999999,Level 3,Level 3,CPE250C-500-CCS1-CHD,Reachable,AVAILABLE,NONE,Available,1,0,0,1,2026-02-03T18:26:38Z,2026-02-03T18:33:15.790551+00:00
NYC FLEET / DEPQNSNSWR_2_L3,133-25 32nd Avenue,Queens,New York,11354,40.767153899269,-73.835498298681,Level 3,Level 3,CPE250C-500-CCS1-CHD,Reachable,AVAILABLE,NONE,Available,1,0,0,1,2026-02-03T18:24:26Z,2026-02-03T18:33:15.790551+00:00
NYC FLEET / DEPQNSNSWR_3_L3,133-25 32nd Avenue,Queens,New York,11354,40.767124441148,-73.835483219815,Level 3,Level 3,CPE250C-500-CCS1-CHD,Reachable,INUSE,NONE,Available,1,0,0,1,2026-02-03T18:24:36Z,2026-02-03T18:33:15.790551+00:00
NYC FLEET / DEPQNSNSWR_1_L3,133-25 32nd Avenue,Queens,New York,11354,40.767105223172,-73.835450215197,Level 3,Level 3,CPE250C-500-CCS1-CHD,Reachable,AVAILABLE,NONE,Available,1,0,0,1,2026-02-03T18:26:52Z,2026-02-03T18:33:15.790551+00:00
NYC FLEET / DEP_Q7-2,133-25 32nd Avenue,Queens,New York,11354,40.767307811085,-73.835337930605,Level 2,Level 2,CT4020-HD2-GW-LTE,Reachable,AVAILABLE,NONE,Available,2,0,0,2,2026-02-03T18:26:16Z,2026-02-03T18:33:15.790551+00:00
NYC FLEET / DEP_Q7-3,133-25 32nd Avenue,Queens,New York,11354,40.767265855517,-73.835334161631,Level 2,Level 2,CT4020-HD2-GW-LTE,Reachable,AVAILABLE,NONE,Available,2,0,0,2,2026-02-03T18:30:24Z,2026-02-03T18:33:15.790551+00:00
NYC FLEET / DEP_Q7-4,133-25 32nd Avenue,Queens,New York,11354,40.767237908647,-73.835321151661,Level 2,Level 2,CT4020-HD2-GW-LTE,Reachable,AVAILABLE,NONE,Available,2,0,0,2,2026-02-03T18:26:05Z,2026-02-03T18:33:15.790551+00:00
NYC FLEET / DOT_206YRD_1_L3,300 West 206th Street,New York,New York,10034,40.862500947937,-73.917242416068,Level 3,Level 3,CPE250C-500-CCS1-CHD,Reachable,AVAILABLE,NONE,Available,1,0,0,1,2026-02-03T18:26:32Z,2026-02-03T18:33:15.790551+00:00
NYC FLEET / DOT_206TH_YRD-2,300 West 206th Street,New York,New York,10034,40.862330698434,-73.916877770578,Level 2,Level 2,CT4020-HD2-GW-LTE,Reachable,AVAILABLE,NONE,Available,2,0,0,2,2026-02-03T18:27:40Z,2026-02-03T18:33:15.790551+00:00
NYC FLEET / DOT_206TH_YRD-1,300 West 206th Street,New York,New York,10034,40.862451454657,-73.917105695039,Level 2,Level 2,CT4020-HD2-GW-LTE,Reachable,AVAILABLE,NONE,Available,2,0,0,2,2026-02-03T18:23:58Z,2026-02-03T18:33:15.790551+00:00
NYC FLEET / NYPD_116TH_7_L3,244-04 North Conduit Avenue,Queens,New York,11422,40.66617367464,-73.73310979834,Level 3,Level 3,CPE250C-500-CCS1-CHD,Reachable,AVAILABLE,NONE,Available,1,0,0,1,2026-02-03T18:29:09Z,2026-02-03T18:33:15.790551+00:00
NYC FLEET / NYPD_116TH_8_L3,244-04 North Conduit Avenue,Queens,New York,11422,40.666180323323,-73.733147670808,Level 3,Level 3,CPE250C-500-CCS1-CHD,Reachable,AVAILABLE,NONE,Available,1,0,0,1,2026-02-03T18:25:48Z,2026-02-03T18:33:15.790551+00:00
NYC FLEET / NYPD_116TH_6_L3,244-04 North Conduit Avenue,Queens,New York,11422,40.666170262868,-73.73316663143,Level 3,Level 3,CPE250C-500-CCS1-CHD,Reachable,AVAILABLE,NONE,Available,1,0,0,1,2026-02-03T18:24:35Z,2026-02-03T18:33:15.790551+00:00
NYC FLEET / NYPD_116TH_5_L3,244-04 North Conduit Avenue,Queens,New York,11422,40.666164716957,-73.733148275553,Level 3,Level 3,CPE250C-500-CCS1-CHD,Reachable,AVAILABLE,NONE,Available,1,0,0,1,2026-02-03T18:24:58Z,2026-02-03T18:33:15.790551+00:00
NYC FLEET / NYPD_116TH_2_L3,244-04 North Conduit Avenue,Queens,New York,11422,40.66616646149901,-73.73316871682205,Level 3,Level 3,CPE250C-500-CCS1-CHD,Reachable,AVAILABLE,NONE,Available,1,0,0,1,2026-02-03T18:29:59Z,2026-02-03T18:33:15.790551+00:00
NYC FLEET / NYPD_116TH_3_L3,244-04 North Conduit Avenue,Queens,New York,11422,40.666158508335,-73.733252832679,Level 3,Level 3,CPE250C-500-CCS1-CHD,Reachable,INUSE,NONE,Charging,1,1,0,0,2026-02-03T18:25:15Z,2026-02-03T18:33:15.790551+00:00
NYC FLEET / NYPD_116TH_1_L3,244-04 North Conduit Avenue,Queens,New York,11422,40.666163400125,-73.73325612227,Level 3,Level 3,CPE250C-500-CCS1-CHD,Reachable,AVAILABLE,NONE,Available,1,0,0,1,2026-02-03T18:26:39Z,2026-02-03T18:33:15.790551+00:00
NYC FLEET / NYPD_116TH_4_L3,244-04 North Conduit Avenue,Queens,New York,11422,40.666178183336,-73.733349280821,Level 3,Level 3,CPE250C-500-CCS1-CHD,Reachable,AVAILABLE,NONE,Available,1,0,0,1,2026-02-03T18:27:48Z,2026-02-03T18:33:15.790551+00:00
NYC FLEET / DOT_STHSE_LD-1,6626 Metropolitan Ave,Queens,New York,11379,40.711550433747036,-73.89226768122863,Level 2,Level 2,CT4020-HD2-GW-LTE,Reachable,AVAILABLE,NONE,Available,2,0,0,2,2026-02-03T18:28:21Z,2026-02-03T18:33:15.790551+00:00
NYC FLEET / DOT_STHSE_LD-2,6626 Metropolitan Ave,Queens,New York,11379,40.71157483120784,-73.89205310450744,Level 2,Level 2,CT4020-HD2-GW-LTE,Unreachable,UNREACHABLE,NONE,Available,2,0,0,2,2026-02-03T17:39:19Z,2026-02-03T18:33:15.790551+00:00
NYC FLEET / DPR_MSPTHPK-2,54-8 43rd St,Queens,New York,11378,40.73199912098944,-73.92478548598329,Level 2,Level 2,CT4025-HD-GW,Reachable,AVAILABLE,NONE,Available,2,0,0,2,2026-02-03T18:32:29Z,2026-02-03T18:33:15.790551+00:00
NYC FLEET / NYPD_SVD_2_L3,188 West 230th Street,The Bronx,New York,10463,40.876045404843,-73.905806815201,Level 3,Level 3,CPE250C-500-CCS1-CHD,Reachable,AVAILABLE,NONE,Available,1,0,0,1,2026-02-03T18:27:52Z,2026-02-03T18:33:15.790551+00:00
NYC FLEET / NYPD_SVD_1_L3,188 West 230th Street,The Bronx,New York,10463,40.87602695422,-73.905667825859,Level 3,Level 3,CPE250C-500-CCS1-CHD,Reachable,AVAILABLE,NONE,Available,1,0,0,1,2026-02-03T18:31:46Z,2026-02-03T18:33:15.790551+00:00
NYC FLEET / DPR_BKWARMEMOR1,195 Cadman Plaza West,Brooklyn,New York,11201,40.698551681811,-73.990740217038,Level 2,Level 2,CT4020-HD2-GW-LTE,Reachable,AVAILABLE,NONE,Available,2,0,0,2,2026-02-03T18:31:47Z,2026-02-03T18:33:15.790551+00:00
NYC FLEET / DPR_BKWARMEMOR2,195 Cadman Plaza West,Brooklyn,New York,11201,40.698547889162,-73.990643746663,Level 2,Level 2,CT4020-HD2-GW-LTE,Reachable,AVAILABLE,NONE,Available,2,0,0,2,2026-02-03T18:32:26Z,2026-02-03T18:33:15.790551+00:00
NYC FLEET / DOT_BRUNO_2_L3,25 14th Street,Brooklyn,New York,11215,40.670242250685,-73.996845235744,Level 3,Level 3,CPE250C-500-CCS1-CHD,Reachable,AVAILABLE,NONE,Available,1,0,0,1,2026-02-03T18:27:32Z,2026-02-03T18:33:15.790551+00:00
NYC FLEET / DOT_BRUNO_1_L3,25 14th Street,Brooklyn,New York,11215,40.670254901591,-73.996820985387,Level 3,Level 3,CPE250C-500-CCS1-CHD,Reachable,AVAILABLE,NONE,Available,1,0,0,1,2026-02-03T18:25:10Z,2026-02-03T18:33:15.790551+00:00
NYC FLEET / NYPD_67PCT-2,2820 Snyder Ave,Brooklyn,New York,11226,40.64863649487458,-73.95018299140168,Level 2,Level 2,CPF50,Reachable,AVAILABLE,NONE,Available,1,0,0,1,2026-02-03T18:28:43Z,2026-02-03T18:33:15.790551+00:00
NYC FLEET / DOE_K802_1_L3,409 Red Hook Lane,Brooklyn,New York,11201,40.691323587603,-73.988688976087,Level 3,Level 3,CPE250C-500-CCS1-CHD,Reachable,AVAILABLE,NONE,Available,1,0,0,1,2026-02-03T18:27:22Z,2026-02-03T18:33:15.790551+00:00
NYC FLEET / DPROLMBRADDICK2,117 Roosevelt Avenue,Queens,New York,11368,40.751088511863,-73.848629477009,Level 2,Level 2,CT4020-HD2-GW-LTE,Reachable,INUSE,NONE,Available,2,1,0,1,2026-02-03T18:30:37Z,2026-02-03T18:33:15.790551+00:00
NYC FLEET / DPR_JUNIPER1,62- 45 71st Street,Queens,New York,11379,40.718742283969,-73.884663489038,Level 2,Level 2,CT4020-HD2-GW-LTE,Reachable,AVAILABLE,NONE,Available,2,0,0,2,2026-02-03T18:27:39Z,2026-02-03T18:33:15.790551+00:00
NYC FLEET / DPR_JUNIPER2,62- 45 71st Street,Queens,New York,11379,40.718723209203,-73.884615361788,Level 2,Level 2,CT4020-HD2-GW-LTE,Reachable,AVAILABLE,NONE,Available,2,0,0,2,2026-02-03T18:32:11Z,2026-02-03T18:33:15.790551+00:00
NYC FLEET / FDNYMS ST1,135-16 38th Ave,Queens,New York,11354,40.7602414,-73.8320129,Level 2,Level 2,CPF50-L18,Unreachable,UNREACHABLE,NONE,Available,1,0,0,1,2025-04-23T06:11:54Z,2026-02-03T18:33:15.790551+00:00
NYC FLEET / DEP_GRHMS_2_L3,7866 New York 42,Grahamsville,New York,12740,41.843767865211,-74.541125501243,Level 3,Level 3,CPE250C-500-CCS1-CHD,Reachable,AVAILABLE,NONE,Available,1,0,0,1,2026-02-03T18:28:17Z,2026-02-03T18:33:15.790551+00:00
NYC FLEET / DCAS_PSAC2_1_L3,350 Marconi Street,The Bronx,New York,10461,40.855139131563,-73.837283067474,Level 3,Level 3,CPE250C-500-CCS1-CHD,Reachable,AVAILABLE,NONE,Available,1,0,0,1,2026-02-03T18:31:54Z,2026-02-03T18:33:15.790551+00:00
NYC FLEET / DCAS_PSAC2_2_L3,350 Marconi Street,The Bronx,New York,10461,40.855140434133,-73.83731082214,Level 3,Level 3,CPE250C-500-CCS1-CHD,Reachable,AVAILABLE,NONE,Available,1,0,0,1,2026-02-03T18:24:16Z,2026-02-03T18:33:15.790551+00:00
NYC FLEET / DCAS_PSAC2_3_L3,350 Marconi Street,The Bronx,New York,10461,40.85511340725,-73.837312217983,Level 3,Level 3,CPE250C-500-CCS1-CHD,Reachable,AVAILABLE,NONE,Available,1,0,0,1,2026-02-03T18:27:00Z,2026-02-03T18:33:15.790551+00:00
NYC FLEET / DEP_CRFLSP_1_L3,16 Samantha Lane,Carmel Hamlet,New York,10512,41.359172002606,-73.669126599217,Level 3,Level 3,CPE250C-500-CHD-CCS1,Reachable,AVAILABLE,NONE,Available,1,0,0,1,2026-02-03T18:30:06Z,2026-02-03T18:33:15.790551+00:00
NYC FLEET / DOT_THOMSN_1_L3,30-30 Thomson Avenue,Queens,New York,11101,40.74340972191,-73.936338055264,Level 3,Level 3,CPE250C-500-CCS1-CHD,Reachable,AVAILABLE,NONE,Available,1,0,0,1,2026-02-03T18:23:15Z,2026-02-03T18:33:15.790551+00:00
NYC FLEET / DOT_THOMSN_2_L3,30-30 Thomson Avenue,Queens,New York,11101,40.743423348354,-73.936302775722,Level 3,Level 3,CPE250C-500-CCS1-CHD,Reachable,AVAILABLE,NONE,Available,1,0,0,1,2026-02-03T18:32:01Z,2026-02-03T18:33:15.790551+00:00
NYC FLEET / DCAS_PSAC2_4_L3,350 Marconi St,The Bronx,New York,10461,40.8552,-73.83611,Level 3,Level 3,CPE250C-500-CCS1-CHD,Reachable,AVAILABLE,NONE,Available,1,0,0,1,2026-02-03T18:27:25Z,2026-02-03T18:33:15.790551+00:00
NYC FLEET / FDNY_EMS7-1,100 Duane Street,New York,New York,10007,40.715568148306,-74.006083252498,Level 2,Level 2,CPF50-L18,Unreachable,UNREACHABLE,NONE,Available,1,0,0,1,2025-11-03T22:19:51Z,2026-02-03T18:33:15.790551+00:00
NYC FLEET / NYPD_40PCT-2,555 E 149th St,The Bronx,New York,10455,40.8145031,-73.9131475,Level 2,Level 2,CPF50-L18,Reachable,AVAILABLE,NONE,Available,1,0,0,1,2026-02-03T18:31:18Z,2026-02-03T18:33:15.790551+00:00
NYC FLEET / NYPD_40PCT-3,555 E 149th St,The Bronx,New York,10455,40.8145031,-73.9131475,Level 2,Level 2,CPF50-L18,Reachable,AVAILABLE,NONE,Available,1,0,0,1,2026-02-03T18:31:18Z,2026-02-03T18:33:15.790551+00:00
NYC FLEET / HRA_BKFLTN_1_L3,2440 Fulton Street,Brooklyn,New York,11207,40.677327608538,-73.904724203876,Level 3,Level 3,CPE250C-500-CCS1-CHD,Reachable,AVAILABLE,NONE,Available,1,0,0,1,2026-02-03T18:30:05Z,2026-02-03T18:33:15.790551+00:00
NYC FLEET / HRA_BKFLTN_2_L3,2440 Fulton St,Brooklyn,New York,11207,40.677654,-73.90369,Level 3,Level 3,CPE250C-500-CCS1-CHD,Reachable,AVAILABLE,NONE,Available,1,0,0,1,2026-02-03T18:28:22Z,2026-02-03T18:33:15.790551+00:00
NYC FLEET / HRA_BKFLTN_3_L3,2440 Fulton St,Brooklyn,New York,11207,40.6776553,-73.9036844,Level 3,Level 3,CPE250C-500-CCS1-CHD,Reachable,AVAILABLE,NONE,Available,1,0,0,1,2026-02-03T18:26:41Z,2026-02-03T18:33:15.790551+00:00
NYC FLEET / DPR_ORCHDBCHQ-1,2 Orchard Beach Road,The Bronx,New York,10464,40.864639065214,-73.796790430946,Level 2,Level 2,CT4020-HD2-GW-LTE,Reachable,AVAILABLE,NONE,Available,2,0,0,2,2026-02-03T18:28:01Z,2026-02-03T18:33:15.790551+00:00
NYC FLEET / DPR_ORCHDBCHQ-2,2 Orchard Beach Road,The Bronx,New York,10464,40.864532974089,-73.796782717539,Level 2,Level 2,CT4020-HD2-GW-LTE,Reachable,AVAILABLE,NONE,Available,2,0,0,2,2026-02-03T18:32:17Z,2026-02-03T18:33:15.790551+00:00
NYC FLEET / DPR_ORCHDBCHQ-4,2 Orchard Beach Road,The Bronx,New York,10464,40.864200810165,-73.796301657924,Level 2,Level 2,CT4020-HD2-GW-LTE,Reachable,AVAILABLE,NONE,Available,2,0,0,2,2026-02-03T18:31:35Z,2026-02-03T18:33:15.790551+00:00
NYC FLEET / DPR_ORCHDBCHQ-5,2 Orchard Beach Road,The Bronx,New York,10464,40.864193518197,-73.79627589605,Level 2,Level 2,CT4020-HD2-GW-LTE,Reachable,AVAILABLE,NONE,Available,2,0,0,2,2026-02-03T18:24:44Z,2026-02-03T18:33:15.790551+00:00
NYC FLEET / DPR_ORCHDBCHQ-6,2 Orchard Beach Road,The Bronx,New York,10464,40.864102168673,-73.796254001708,Level 2,Level 2,CT4020-HD2-GW-LTE,Reachable,AVAILABLE,NONE,Available,2,0,0,2,2026-02-03T18:31:42Z,2026-02-03T18:33:15.790551+00:00
NYC FLEET / DPR_ORCHDBCHQ-3,2 Orchard Beach Road,The Bronx,New York,10464,40.864205484347,-73.796313392486,Level 2,Level 2,CT4020-HD2-GW-LTE,Reachable,AVAILABLE,NONE,Available,2,0,0,2,2026-02-03T18:23:44Z,2026-02-03T18:33:15.790551+00:00
NYC FLEET / NYPD_41PCT_2_L3,1035 Longwood Avenue,The Bronx,New York,10459,40.81654920645,-73.895361974663,Level 3,Level 3,CPE250C-500-CCS1-CHD,Reachable,AVAILABLE,NONE,Available,1,0,0,1,2026-02-03T18:24:21Z,2026-02-03T18:33:15.790551+00:00
NYC FLEET / NYPD_41PCT_1_L3,1035 Longwood Avenue,The Bronx,New York,10459,40.816582838057,-73.895389212481,Level 3,Level 3,CPE250C-500-CCS1-CHD,Reachable,AVAILABLE,NONE,Available,1,0,0,1,2026-02-03T18:25:54Z,2026-02-03T18:33:15.790551+00:00
NYC FLEET / DEP_QNSWTR_1_L3,49- 14 Fresh Meadow Lane,Queens,New York,11365,40.747104050302,-73.795480733844,Level 3,Level 3,CPE250C-500-CCS1-CHD,Reachable,AVAILABLE,NONE,Available,1,0,0,1,2026-02-03T18:26:09Z,2026-02-03T18:33:15.790551+00:00
NYC FLEET / DEP_QNSWTR_2_L3,49- 14 Fresh Meadow Lane,Queens,New York,11365,40.747124673474,-73.795559898347,Level 3,Level 3,CPE250C-500-CCS1-CHD,Reachable,AVAILABLE,NONE,Available,1,0,0,1,2026-02-03T18:27:23Z,2026-02-03T18:33:15.790551+00:00
NYC FLEET / DEP_QNSWTR_3_L3,49- 14 Fresh Meadow Lane,Queens,New York,11365,40.74714247957,-73.795601128709,Level 3,Level 3,CPE250C-500-CCS1-CHD,Reachable,AVAILABLE,NONE,Available,1,0,0,1,2026-02-03T18:24:25Z,2026-02-03T18:33:15.790551+00:00
NYC FLEET / DEP_QNSWTR_4_L3,49- 14 Fresh Meadow Lane,Queens,New York,11365,40.747162460251,-73.795710601583,Level 3,Level 3,CPE250C-500-CCS1-CHD,Reachable,AVAILABLE,NONE,Available,1,0,0,1,2026-02-03T18:28:12Z,2026-02-03T18:33:15.790551+00:00
NYC FLEET / DEP_QNSWTR-1,49- 14 Fresh Meadow Lane,Queens,New York,11365,40.746813804685,-73.794755127661,Level 2,Level 2,CT4020-HD2-GW-LTE,Reachable,AVAILABLE,NONE,Available,2,0,0,2,2026-02-03T18:26:48Z,2026-02-03T18:33:15.790551+00:00
NYC FLEET / DEP_OWLSHD_3_L3,6700 Shore Road,Brooklyn,New York,11220,40.640784288917,-74.035706294168,Level 3,Level 3,CPE250C-500-CCS1-CHD,Reachable,AVAILABLE,NONE,Available,1,0,0,1,2026-02-03T18:30:04Z,2026-02-03T18:33:15.790551+00:00
NYC FLEET / DEP_OWLSHD_5_L3,6700 Shore Road,Brooklyn,New York,11220,40.640800266173,-74.035683091808,Level 3,Level 3,CPE250C-500-CHD-CCS1,Reachable,AVAILABLE,NONE,Available,1,0,0,1,2026-02-03T18:30:11Z,2026-02-03T18:33:15.790551+00:00
NYC FLEET / DDC_THOMSN_1_L3,30-30 Thomson Avenue,Queens,New York,11101,40.743925890628,-73.935758115495,Level 3,Level 3,CPE250C-500-CCS1-CHD,Reachable,AVAILABLE,NONE,Available,1,0,0,1,2026-02-03T18:32:49Z,2026-02-03T18:33:15.790551+00:00
NYC FLEET / DEP_OWLSHD_6_L3,6700 Shore Road,Brooklyn,New York,11220,40.640810799377,-74.035749098146,Level 3,Level 3,CPE250C-500-CHD-CCS1,Reachable,AVAILABLE,NONE,Available,1,0,0,1,2026-02-03T18:30:01Z,2026-02-03T18:33:15.790551+00:00
NYC FLEET / DEP_OWLSHD_7_L3,6700 Shore Rd,Brooklyn,New York,11220,40.64082095977497,-74.03568986832703,Level 3,Level 3,CPE250C-500-CHD-CCS1,Reachable,AVAILABLE,NONE,Available,1,0,0,1,2026-02-03T18:31:48Z,2026-02-03T18:33:15.790551+00:00
NYC FLEET / DEP_OWLSHD_8_L3,6700 Shore Road,Brooklyn,New York,11220,40.64083619126,-74.035701185403,Level 3,Level 3,CPE250C-500-CHD-CCS1,Reachable,AVAILABLE,NONE,Available,1,0,0,1,2026-02-03T18:30:03Z,2026-02-03T18:33:15.790551+00:00
NYC FLEET / DEP_OWLSHD_4_L3,6700 Shore Rd,Brooklyn,New York,11220,40.64084829900042,-74.03571218879515,Level 3,Level 3,CPE250C-500-CCS1-CHD,Reachable,INUSE,NONE,Charging,1,1,0,0,2026-02-03T18:32:14Z,2026-02-03T18:33:15.790551+00:00
NYC FLEET / DPR_ELMHRSTPK-1,7801 57th Avenue,Queens,New York,11373,40.728975485173,-73.885134533827,Level 2,Level 2,CT4020-HD2-GW-LTE,Reachable,AVAILABLE,NONE,Available,2,0,0,2,2026-02-03T18:26:54Z,2026-02-03T18:33:15.790551+00:00
NYC FLEET / DSNY_BK15KDCFC1,2501 Knapp Street,Brooklyn,New York,11235,40.591437169047,-73.932093915735,Level 3,Level 3,CPE250C-500-CCS1-CHD,Reachable,AVAILABLE,NONE,Available,1,0,0,1,2026-02-03T18:31:42Z,2026-02-03T18:33:15.790551+00:00
NYC FLEET / DSNY_BK04-DCFC1,161 Varick Avenue,Brooklyn,New York,11237,40.710908233129,-73.928904731534,Level 3,Level 3,CPE250C-500-CCS1-CHD,Reachable,AVAILABLE,NONE,Available,1,0,0,1,2026-02-03T18:23:51Z,2026-02-03T18:33:15.790551+00:00
NYC FLEET / DSNY_BK04-DCFC2,161 Varick Avenue,Brooklyn,New York,11237,40.710899417907,-73.928918143703,Level 3,Level 3,CPE250C-500-CCS1-CHD,Reachable,AVAILABLE,NONE,Available,1,0,0,1,2026-02-03T18:31:30Z,2026-02-03T18:33:15.790551+00:00
NYC FLEET / DSNY_BK04-DCFC3,161 Varick Avenue,Brooklyn,New York,11237,40.710732221637,-73.928623361226,Level 3,Level 3,CPE250C-500-CCS1-CHD,Reachable,AVAILABLE,NONE,Available,1,0,0,1,2026-02-03T18:23:47Z,2026-02-03T18:33:15.790551+00:00
NYC FLEET / DSNY_BK04-DCFC4,161 Varick Avenue,Brooklyn,New York,11237,40.710595845046,-73.928911989252,Level 3,Level 3,CPE250C-500-CCS1-CHD,Reachable,AVAILABLE,NONE,Available,1,0,0,1,2026-02-03T18:27:22Z,2026-02-03T18:33:15.790551+00:00
NYC FLEET / DSNY_BK04-DCFC5,161 Varick Avenue,Brooklyn,New York,11237,40.710614754003,-73.928961428047,Level 3,Level 3,CPE250C-500-CCS1-CHD,Reachable,AVAILABLE,NONE,Available,1,0,0,1,2026-02-03T18:29:18Z,2026-02-03T18:33:15.790551+00:00
NYC FLEET / DSNY_BK01-DCFC2,161 Varick Avenue,Brooklyn,New York,11237,40.711230729942,-73.929963564812,Level 3,Level 3,CPE250C-500-CCS1-CHD,Reachable,AVAILABLE,NONE,Available,1,0,0,1,2026-02-03T18:25:29Z,2026-02-03T18:33:15.790551+00:00
NYC FLEET / DSNY_BK01-DCFC3,161 Varick Avenue,Brooklyn,New York,11237,40.71145444114,-73.92983382217,Level 3,Level 3,CPE250C-500-CCS1-CHD,Reachable,AVAILABLE,NONE,Available,1,0,0,1,2026-02-03T18:32:05Z,2026-02-03T18:33:15.790551+00:00
NYC FLEET / DSNY_BK01-DCFC4,161 Varick Avenue,Brooklyn,New York,11237,40.71140384105,-73.929307362115,Level 3,Level 3,CPE250C-500-CCS1-CHD,Reachable,AVAILABLE,NONE,Available,1,0,0,1,2026-02-03T18:26:47Z,2026-02-03T18:33:15.790551+00:00
NYC FLEET / DSNY_BK01-DCFC5,161 Varick Avenue,Brooklyn,New York,11237,40.711458167738,-73.929289362127,Level 3,Level 3,CPE250C-500-CCS1-CHD,Reachable,AVAILABLE,NONE,Available,1,0,0,1,2026-02-03T18:32:09Z,2026-02-03T18:33:15.790551+00:00
NYC FLEET / DSNY_BK01-DCFC6,161 Varick Avenue,Brooklyn,New York,11237,40.711396076789,-73.92908065173,Level 3,Level 3,CPE250C-500-CCS1-CHD,Reachable,AVAILABLE,NONE,Available,1,0,0,1,2026-02-03T18:30:22Z,2026-02-03T18:33:15.790551+00:00
NYC FLEET / DSNY_BK01-DCFC7,161 Varick Avenue,Brooklyn,New York,11237,40.711371104223,-73.929110355704,Level 3,Level 3,CPE250C-500-CCS1-CHD,Reachable,AVAILABLE,NONE,Available,1,0,0,1,2026-02-03T18:31:42Z,2026-02-03T18:33:15.790551+00:00
NYC FLEET / DOT_KENTAVE-4,352 Kent Avenue,Brooklyn,New York,11249,40.71257661272,-73.968603392686,Level 2,Level 2,CT4020-HD2-GW-LTE,Reachable,WATCH LIST,Earth Fault station in service,Available,2,0,1,1,2026-02-03T18:26:36Z,2026-02-03T18:33:15.790551+00:00
NYC FLEET / DOT_KENTAVE-5,352 Kent Avenue,Brooklyn,New York,11249,40.712173105215,-73.968541342129,Level 2,Level 2,CT4020-HD2-GW-LTE,Reachable,WATCH LIST,Earth Fault station in service,Available,2,0,0,2,2026-02-03T18:26:40Z,2026-02-03T18:33:15.790551+00:00
NYC FLEET / DOT_SIRPR_1_L3,1893 Richmond Terrace,Staten Island,New York,10302,40.637698391688,-74.128319076417,Level 3,Level 3,CPE250C-500-CCS1-CHD,Reachable,AVAILABLE,NONE,Available,1,0,0,1,2026-02-03T18:31:06Z,2026-02-03T18:33:15.790551+00:00
NYC FLEET / DOT_SIREPAIR-2,1893 Richmond Terrace,Staten Island,New York,10302,40.637620862159,-74.128194126901,Level 2,Level 2,CT4020-HD2-GW-LTE,Reachable,AVAILABLE,NONE,Available,2,0,0,2,2026-02-03T18:23:15Z,2026-02-03T18:33:15.790551+00:00
NYC FLEET / DPR_ORCDBC_1_L3,2 Orchard Beach Road,The Bronx,New York,10464,40.864592922385,-73.7964874428,Level 3,Level 3,CPE250C-500-CCS1-CHD,Reachable,AVAILABLE,NONE,Available,1,0,0,1,2026-02-03T18:23:48Z,2026-02-03T18:33:15.790551+00:00
NYC FLEET / DPR_ORCDBC_2_L3,2 Orchard Beach Road,The Bronx,New York,10464,40.864300553488,-73.796669482103,Level 3,Level 3,CPE250C-500-CCS1-CHD,Reachable,AVAILABLE,NONE,Available,1,0,0,1,2026-02-03T18:24:44Z,2026-02-03T18:33:15.790551+00:00
NYC FLEET / DSNY_BK04-DCFC6,161 Varick Avenue,Brooklyn,New York,11237,40.710868544733,-73.928872351157,Level 3,Level 3,CPE250C-500-CCS1-CHD,Reachable,INUSE,NONE,Occupied,1,0,1,0,2026-02-03T18:28:19Z,2026-02-03T18:33:15.790551+00:00
NYC FLEET / DOF_PEARL-1,375 Pearl St,New York,New York,10038,40.7109599,-74.0014202,Level 2,Level 2,CPF50-L18,Reachable,AVAILABLE,NONE,Available,1,0,0,1,2026-02-03T18:27:13Z,2026-02-03T18:33:15.790551+00:00
NYC FLEET / DPRGREENBELT#2,501 Brielle Ave,Staten Island,New York,10314,40.591789,-74.1392615,Level 2,Level 2,CT4020-HD2-GW-LTE,Reachable,AVAILABLE,NONE,Available,2,0,0,2,2026-02-03T18:24:09Z,2026-02-03T18:33:15.790551+00:00
NYC FLEET / DOF_PEARL-2,375 Pearl St,New York,New York,10038,40.710931436031935,-74.00142422331352,Level 2,Level 2,CPF50-L18,Reachable,AVAILABLE,NONE,Available,1,0,0,1,2026-02-03T18:27:13Z,2026-02-03T18:33:15.790551+00:00
NYC FLEET / DOF_PEARL_2_L3,375 Pearl Street,New York,New York,10038,40.710522183987,-74.001345411665,Level 3,Level 3,CPE250C-500-CCS1-CHD,Reachable,INUSE,NONE,Occupied,1,0,1,0,2026-02-03T18:29:21Z,2026-02-03T18:33:15.790551+00:00
NYC FLEET / DOF_PEARL_1_L3,375 Pearl Street,New York,New York,10038,40.710525866324,-74.00143434806,Level 3,Level 3,CPE250C-500-CCS1-CHD,Reachable,AVAILABLE,NONE,Available,1,0,0,1,2026-02-03T18:30:20Z,2026-02-03T18:33:15.790551+00:00
NYC FLEET / NYPD_116THPCT_1,244-04 N Conduit Ave,Queens,New York,11422,40.6662521,-73.7341217,Level 2,Level 2,CT4010-HD2-GW-LTE,Reachable,AVAILABLE,NONE,Available,1,0,0,1,2026-02-03T18:23:38Z,2026-02-03T18:33:15.790551+00:00
NYC FLEET / NYPD_116THPCT_2,242-20 N Conduit Ave,Queens,New York,11422,40.66630092809297,-73.73432554788513,Level 2,Level 2,CT4010-HD2-GW-LTE,Reachable,AVAILABLE,NONE,Available,1,0,0,1,2026-02-03T18:30:37Z,2026-02-03T18:33:15.790551+00:00
NYC FLEET / DPRBAISLEYPND-1,118- 9 155th Street,Queens,New York,11434,40.681314997894,-73.787325936687,Level 2,Level 2,CT4020-HD2-GW-LTE,Reachable,AVAILABLE,NONE,Available,2,0,0,2,2026-02-03T18:32:40Z,2026-02-03T18:33:15.790551+00:00
NYC FLEET / DPRBAISLEYPND-2,118- 9 155th Street,Queens,New York,11434,40.681271866394,-73.787265008676,Level 2,Level 2,CT4020-HD2-GW-LTE,Reachable,AVAILABLE,NONE,Available,2,0,0,2,2026-02-03T18:24:17Z,2026-02-03T18:33:15.790551+00:00
NYC FLEET / FDNY_EMS18_1_L3,1647 Washington Ave,The Bronx,New York,10457,40.8409719,-73.90168990000001,Level 3,Level 3,CPE250C-500-CCS1-CHD,Reachable,AVAILABLE,NONE,Available,1,0,0,1,2026-02-03T18:23:06Z,2026-02-03T18:33:15.790551+00:00
NYC FLEET / DEP_ARKVILLE-5,669 Co Rd 38,Arkville,New York,12406,42.158703,-74.62019,Level 2,Level 2,CT4020-HD2-GW-LTE,Reachable,AVAILABLE,NONE,Available,2,0,0,2,2026-02-03T18:31:34Z,2026-02-03T18:33:15.790551+00:00
NYC FLEET / DEP_GRAHMSVLLE4,7870 New York 42,Grahamsville,New York,12740,41.843764703728,-74.543584532507,Level 2,Level 2,CT4020-HD-GW,Reachable,INUSE,NONE,Available,2,0,1,1,2026-02-03T18:31:35Z,2026-02-03T18:33:15.790551+00:00
NYC FLEET / FDNY_FTTOTTEN#3,135 Shore Road,Queens,New York,11359,40.790267175452,-73.772765715725,Level 2,Level 2,CT4020-HD2-GW-LTE,Reachable,AVAILABLE,NONE,Available,2,0,0,2,2026-02-03T18:28:41Z,2026-02-03T18:33:15.790551+00:00
NYC FLEET / DEP_SHAFT6_1_L3,201 River Road North,Wappingers Falls,New York,12590,41.562399327123,-73.95725314402,Level 3,Level 3,CPE250C-500-CCS1-CHD,Reachable,INUSE,NONE,Charging,1,1,0,0,2026-02-03T18:31:12Z,2026-02-03T18:33:15.790551+00:00
NYC FLEET / DPR_KISSENABH-1,160-2 Oak Avenue,Queens,New York,11365,40.749123880351,-73.803691892012,Level 2,Level 2,CT4020-HD2-GW-LTE,Reachable,AVAILABLE,NONE,Available,2,0,0,2,2026-02-03T18:25:11Z,2026-02-03T18:33:15.790551+00:00
NYC FLEET / DEP_JEROME_3_L3,3201 Jerome Avenue,The Bronx,New York,10468,40.87847681824,-73.886738049004,Level 3,Level 3,CPE250C-500-CCS1-CHD,Reachable,AVAILABLE,NONE,Available,1,0,0,1,2026-02-03T18:24:46Z,2026-02-03T18:33:15.790551+00:00
NYC FLEET / DEP_JEROME_2_L3,3201 Jerome Avenue,The Bronx,New York,10468,40.878273827336,-73.887005202074,Level 3,Level 3,CPE250C-500-CCS1-CHD,Reachable,INUSE,NONE,Charging,1,1,0,0,2026-02-03T18:28:02Z,2026-02-03T18:33:15.790551+00:00
NYC FLEET / DOE_FLATLANDS-2,6565 Flatlands Avenue,Brooklyn,New York,11236,40.634244257905,-73.91739095126,Level 2,Level 2,CT4020-HD2-GW-LTE,Reachable,INUSE,NONE,Available,2,0,0,2,2026-02-03T18:28:15Z,2026-02-03T18:33:15.790551+00:00
NYC FLEET / DEP_MARVIL_1_L3,41158 NY-28,Margaretville,New York,12455,42.14215,-74.651855,Level 3,Level 3,CPE250C-500-CCS1-CHD,Reachable,AVAILABLE,NONE,Available,1,0,0,1,2026-02-03T18:23:12Z,2026-02-03T18:33:15.790551+00:00
NYC FLEET / DOE_Q018-RIGHT,86-35 235th Ct,Queens,New York,11427,40.73211972997615,-73.73213590185243,Level 2,Level 2,CPF50-L18,Unreachable,UNREACHABLE,NONE,Available,1,0,0,1,2026-02-03T17:54:26Z,2026-02-03T18:33:15.790551+00:00
NYC FLEET / DOE_Q018-LEFT,86-35 235th Ct,Queens,New York,11427,40.7321116,-73.7320608,Level 2,Level 2,CPF50-L18,Reachable,INUSE,NONE,Charging,1,1,0,0,2026-02-03T18:24:24Z,2026-02-03T18:33:15.790551+00:00
NYC FLEET / DPR_NATIVEPLA-2,3808 Victory Blvd,Staten Island,New York,10314,40.596405247046405,-74.18150449254314,Level 2,Level 2,CT4020-HD2-GW-LTE,Reachable,INUSE,NONE,Available,2,1,0,1,2026-02-03T18:30:26Z,2026-02-03T18:33:15.790551+00:00
NYC FLEET / DPR_NATIVEPLA-1,3808 Victory Boulevard,Staten Island,New York,10314,40.59633197152235,-74.18205181115047,Level 2,Level 2,CT4020-HD2-GW-LTE,Reachable,AVAILABLE,NONE,Available,2,0,0,2,2026-02-03T18:32:49Z,2026-02-03T18:33:15.790551+00:00
NYC FLEET / FDNY_BFIBK#2,5600 1st Avenue FDNY,Brooklyn,New York,11220,40.646968223691,-74.023370710035,Level 2,Level 2,CPF50-L18,Reachable,AVAILABLE,NONE,Available,1,0,0,1,2026-02-03T18:27:48Z,2026-02-03T18:33:15.790551+00:00
NYC FLEET / DSNY_BX06-DCFC1,800 East 176th Street,The Bronx,New York,10460,40.84154711784,-73.889524754469,Level 3,Level 3,CPE250C-500-CCS1-CHD,Reachable,AVAILABLE,NONE,Available,1,0,0,1,2026-02-03T18:24:53Z,2026-02-03T18:33:15.790551+00:00
NYC FLEET / DOE_Q094-1,41-77 Little Neck Pkwy,Queens,New York,11363,40.7713037,-73.7387655,Level 2,Level 2,CPF50-L18,Reachable,INUSE,NONE,Available,1,0,0,1,2026-02-03T18:32:19Z,2026-02-03T18:33:15.790551+00:00
NYC FLEET / FDNY_ENG71_1_L3,720 Melrose Avenue,The Bronx,New York,10455,40.820254167186,-73.915703467812,Level 3,Level 3,CPE250C-500-CCS1-CHD,Reachable,AVAILABLE,NONE,Available,1,0,0,1,2026-02-03T18:26:46Z,2026-02-03T18:33:15.790551+00:00
NYC FLEET / FDNY_ENG71-1,720 Melrose Avenue,The Bronx,New York,10455,40.82018592067,-73.915360207934,Level 2,Level 2,CT4020-HD-GW,Reachable,AVAILABLE,NONE,Available,2,0,0,2,2026-02-03T18:32:40Z,2026-02-03T18:33:15.790551+00:00
NYC FLEET / DEP_RMD-1,127-17 92nd Ave,Queens,New York,11418,40.697506,-73.82139,Level 2,Level 2,CT4020-HD-GW,Reachable,AVAILABLE,NONE,Available,2,0,0,2,2026-02-03T18:32:42Z,2026-02-03T18:33:15.790551+00:00
NYC FLEET / DEP_RMD-2,127-17 92nd Ave,Queens,New York,11418,40.697506,-73.82139,Level 2,Level 2,CT4020-HD-GW,Reachable,AVAILABLE,NONE,Available,2,0,0,2,2026-02-03T18:26:02Z,2026-02-03T18:33:15.790551+00:00
NYC FLEET / FDNY_E159_1_L3,1592 Richmond Road,Staten Island,New York,10304,40.590556019307,-74.100711659592,Level 3,Level 3,CPE250C-500-CCS1-CHD,Reachable,AVAILABLE,NONE,Available,1,0,0,1,2026-02-03T18:30:05Z,2026-02-03T18:33:15.790551+00:00
NYC FLEET / DSNY_BX06-1,800 East 176th Street,The Bronx,New York,10460,40.842057302307,-73.889788494409,Level 2,Level 2,CT4020-HD-GW,Reachable,AVAILABLE,NONE,Available,2,0,0,2,2026-02-03T18:29:31Z,2026-02-03T18:33:15.790551+00:00
NYC FLEET / DOT_MNSIGN_3,345 East 59th Street,New York,New York,10022,40.760513149323,-73.962874607517,Level 2,Level 2,CT4020-HD2-GW-LTE,Reachable,AVAILABLE,NONE,Available,2,0,0,2,2026-02-03T18:27:43Z,2026-02-03T18:33:15.790551+00:00
NYC FLEET / DOT_MNSIGN_1_L3,245 East 59th Street,New York,New York,10022,40.759951027146,-73.962439348393,Level 3,Level 3,CPE250C-500-CCS1-CHD,Reachable,AVAILABLE,NONE,Available,1,0,0,1,2026-02-03T18:24:35Z,2026-02-03T18:33:15.790551+00:00
NYC FLEET / DOT_MNSIGN_2_L3,345 East 59th Street,New York,New York,10022,40.760481420044,-73.963132935821,Level 3,Level 3,CPE250C-500-CCS1-CHD,Reachable,AVAILABLE,NONE,Available,1,0,0,1,2026-02-03T18:32:41Z,2026-02-03T18:33:15.790551+00:00
NYC FLEET / DOT_MNSIGN_1,345 East 59th Street,New York,New York,10022,40.760020252587,-73.962439878327,Level 2,Level 2,CT4020-HD2-GW-LTE,Reachable,AVAILABLE,NONE,Available,2,0,0,2,2026-02-03T18:26:54Z,2026-02-03T18:33:15.790551+00:00
NYC FLEET / DOT_MNSIGN_2,East 59th Street,New York,New York,10022,40.760009668608,-73.962457156048,Level 2,Level 2,CT4020-HD2-GW-LTE,Reachable,AVAILABLE,NONE,Available,2,0,0,2,2026-02-03T18:26:37Z,2026-02-03T18:33:15.790551+00:00
NYC FLEET / DEP_ZEREGA-6,930 Zerega Avenue,The Bronx,New York,10473,40.827328,-73.842995,Level 2,Level 2,CT4020-HD2-GW-LTE,Reachable,AVAILABLE,NONE,Available,2,0,0,2,2026-02-03T18:24:11Z,2026-02-03T18:33:15.790551+00:00
NYC FLEET / DEP_ZEREGA_6_L3,930 Zerega Avenue,The Bronx,New York,10473,40.827914583621,-73.842046004431,Level 3,Level 3,CPE250C-500-CCS1-CHD,Reachable,AVAILABLE,NONE,Available,1,0,0,1,2026-02-03T18:32:12Z,2026-02-03T18:33:15.790551+00:00
NYC FLEET / DEP_ZEREGA_5_L3,930 Zerega Avenue,The Bronx,New York,10473,40.827745523721,-73.842845682954,Level 3,Level 3,CPE250C-500-CCS1-CHD,Reachable,AVAILABLE,NONE,Available,1,0,0,1,2026-02-03T18:25:11Z,2026-02-03T18:33:15.790551+00:00
NYC FLEET / DEP_ZEREGA_1_L3,930 Zerega Avenue,The Bronx,New York,10473,40.827711253705,-73.841951322023,Level 3,Level 3,CPE250C-500-CCS1-CHD,Reachable,AVAILABLE,NONE,Available,1,0,0,1,2026-02-03T18:31:57Z,2026-02-03T18:33:15.790551+00:00
NYC FLEET / DEP_ZEREGA_2_L3,930 Zerega Avenue,The Bronx,New York,10473,40.827518802018,-73.843415361358,Level 3,Level 3,CPE250C-500-CHD-CCS1,Reachable,AVAILABLE,NONE,Available,1,0,0,1,2026-02-03T18:30:06Z,2026-02-03T18:33:15.790551+00:00
NYC FLEET / DEP_ZEREGA_3_L3,930 Zerega Avenue,The Bronx,New York,10473,40.827524326683,-73.843216804313,Level 3,Level 3,CPE250C-500-CCS1-CHD,Reachable,AVAILABLE,NONE,Available,1,0,0,1,2026-02-03T18:28:08Z,2026-02-03T18:33:15.790551+00:00
NYC FLEET / DEP_ZEREGA_4_L3,930 Zerega Avenue,The Bronx,New York,10473,40.827653710274,-73.842793905818,Level 3,Level 3,CPE250C-500-CCS1-CHD,Reachable,AVAILABLE,NONE,Available,1,0,0,1,2026-02-03T18:30:46Z,2026-02-03T18:33:15.790551+00:00
NYC FLEET / DEP_ZEREGA-1,930 Zerega Avenue,The Bronx,New York,10473,40.827622100046,-73.84363134316,Level 2,Level 2,CT4020-HD2-GW-LTE,Reachable,AVAILABLE,NONE,Available,2,0,0,2,2026-02-03T18:31:41Z,2026-02-03T18:33:15.790551+00:00
NYC FLEET / DEP_ZEREGA-2,930 Zerega Avenue,The Bronx,New York,10473,40.827551095169,-73.842920898531,Level 2,Level 2,CT4020-HD2-GW-LTE,Reachable,AVAILABLE,NONE,Available,2,0,0,2,2026-02-03T18:31:05Z,2026-02-03T18:33:15.790551+00:00
NYC FLEET / DEP_ZEREGA-3,930 Zerega Avenue,The Bronx,New York,10473,40.827452911481,-73.843358796527,Level 2,Level 2,CT4020-HD2-GW-LTE,Reachable,AVAILABLE,NONE,Available,2,0,0,2,2026-02-03T18:31:50Z,2026-02-03T18:33:15.790551+00:00
NYC FLEET / DEP_ZEREGA-4,930 Zerega Avenue,The Bronx,New York,10473,40.827452598838,-73.843262840425,Level 2,Level 2,CT4020-HD2-GW-LTE,Reachable,AVAILABLE,NONE,Available,2,0,0,2,2026-02-03T18:30:25Z,2026-02-03T18:33:15.790551+00:00
NYC FLEET / DEP_ZEREGA-5,930 Zerega Avenue,The Bronx,New York,10473,40.827454505779,-73.843131949319,Level 2,Level 2,CT4020-HD2-GW-LTE,Reachable,AVAILABLE,NONE,Available,2,0,0,2,2026-02-03T18:26:25Z,2026-02-03T18:33:15.790551+00:00
NYC FLEET / DOT_MNSIGN_4,345 East 59th Street,New York,New York,10022,40.760602022658,-73.962603497037,Level 2,Level 2,CT4020-HD2-GW-LTE,Reachable,AVAILABLE,NONE,Available,2,0,0,2,2026-02-03T18:29:26Z,2026-02-03T18:33:15.790551+00:00
NYC FLEET / NYPD_30PCT_2_L3,451 West 151st Street,New York,New York,10031,40.829052457245,-73.944119980194,Level 3,Level 3,CPE250C-500-CCS1-CHD,Reachable,AVAILABLE,NONE,Available,1,0,0,1,2026-02-03T18:27:17Z,2026-02-03T18:33:15.790551+00:00
NYC FLEET / NYPD_30PCT_1_L3,451 West 151st Street,New York,New York,10031,40.829041633583,-73.944064886571,Level 3,Level 3,CPE250C-500-CCS1-CHD,Reachable,AVAILABLE,NONE,Available,1,0,0,1,2026-02-03T18:26:29Z,2026-02-03T18:33:15.790551+00:00
NYC FLEET / DEP_GRANNEX-1,16 Little Hollow Road,Neversink,New York,12740,41.843588822056,-74.545500913008,Level 2,Level 2,CT4020-HD2-GW-LTE,Reachable,AVAILABLE,NONE,Available,2,0,0,2,2026-02-03T18:29:33Z,2026-02-03T18:33:15.790551+00:00
NYC FLEET / DEP_GRANNEX-2,16 Little Hollow Road,Neversink,New York,12740,41.84363214436,-74.545559643959,Level 2,Level 2,CT4020-HD2-GW-LTE,Reachable,AVAILABLE,NONE,Available,2,0,0,2,2026-02-03T18:24:06Z,2026-02-03T18:33:15.790551+00:00
NYC FLEET / FDNY_EMS44-1,266 Rockaway Ave,Brooklyn,New York,11233,40.6741572,-73.91142479999999,Level 2,Level 2,CPF50-L23,Reachable,AVAILABLE,NONE,Available,1,0,0,1,2026-02-03T18:24:52Z,2026-02-03T18:33:15.790551+00:00
NYC FLEET / DEP_KNGSTN_2_L3,81 Smith Avenue,Kingston,New York,12401,41.930558394565,-74.000697845244,Level 3,Level 3,CPE250C-500-CCS1-CHD,Reachable,AVAILABLE,NONE,Available,1,0,0,1,2026-02-03T18:27:19Z,2026-02-03T18:33:15.790551+00:00
NYC FLEET / DOT_VERNON_1_L3,42-00 Vernon Boulevard,Queens,New York,11101,40.754654371516,-73.949890403221,Level 3,Level 3,CPE250C-500-CCS1-CHD,Reachable,INUSE,NONE,Charging,1,1,0,0,2026-02-03T18:25:00Z,2026-02-03T18:33:15.790551+00:00
NYC FLEET / DOT_VERNONYRD-2,42-00 Vernon Boulevard,Queens,New York,11101,40.754678426468,-73.949963422561,Level 2,Level 2,CT4020-HD2-GW-LTE,Reachable,AVAILABLE,NONE,Available,2,0,0,2,2026-02-03T18:30:23Z,2026-02-03T18:33:15.790551+00:00
NYC FLEET / DOE-HYLANBLVD-1,6581 Hylan Blvd,Staten Island,New York,10309,40.512276,-74.2198,Level 2,Level 2,CPF50-L18,Unreachable,UNREACHABLE,NONE,Available,1,0,0,1,2026-01-31T09:25:23Z,2026-02-03T18:33:15.790551+00:00
NYC FLEET / NYPD_48PCT_1_L3,450 Cross Bronx Expressway,The Bronx,New York,10457,40.843869882117,-73.900928860403,Level 3,Level 3,CPE250C-500-CCS1-CHD,Reachable,AVAILABLE,NONE,Available,1,0,0,1,2026-02-03T18:29:16Z,2026-02-03T18:33:15.790551+00:00
NYC FLEET / DEP_KINGSTON-4,81 Smith Avenue,Kingston,New York,12401,41.930526843172,-74.000601291115,Level 2,Level 2,CT4020-HD-GW,Unreachable,UNREACHABLE,NONE,Available,2,0,0,2,2026-02-03T10:43:57Z,2026-02-03T18:33:15.790551+00:00
NYC FLEET / DEP_KINGSTON-5,81 Smith Avenue,Kingston,New York,12401,41.930510558687,-74.00052883158,Level 2,Level 2,CT4020-HD-GW,Reachable,AVAILABLE,NONE,Available,2,0,1,1,2026-02-03T18:26:58Z,2026-02-03T18:33:15.790551+00:00
NYC FLEET / DEP_KINGSTON-6,81 Smith Avenue,Kingston,New York,12401,41.930483465264,-74.000459245365,Level 2,Level 2,CT4020-HD-GW,Reachable,INUSE,NONE,Available,2,0,0,2,2026-02-03T18:24:42Z,2026-02-03T18:33:15.790551+00:00
NYC FLEET / DEP_KINGSTON-8,81 Smith Avenue,Kingston,New York,12401,41.93042857066,-74.000319137313,Level 2,Level 2,CT4020-HD2-GW-LTE,Reachable,AVAILABLE,NONE,Available,2,0,0,2,2026-02-03T18:22:42Z,2026-02-03T18:33:15.790551+00:00
NYC FLEET / DEP_KINGSTON-9,81 Smith Avenue,Kingston,New York,12401,41.930382631141,-74.000187589357,Level 2,Level 2,CT4020-HD2-GW-LTE,Reachable,AVAILABLE,NONE,Available,2,0,0,2,2026-02-03T18:22:45Z,2026-02-03T18:33:15.790551+00:00
